[
  {
    "name": "CSB1 Alakamisy Marososona",
    "coordinates": [46.880037, -20.05749]
  },
  {
    "name": "CSB1 Alakamisy Tsarazaza",
    "coordinates": [47.311154, -20.214794]
  },
  {
    "name": "CSB1 Alatsinainy Loharano",
    "coordinates": [47.273111, -19.055969]
  },
  { "name": "CSB1 Ambahivahy", "coordinates": [45.036991, -17.944862] },
  { "name": "CSB1 Ambahivahy", "coordinates": [48.404026, -15.287858] },
  { "name": "CSB1 Ambakirano", "coordinates": [48.852077, -13.511326] },
  { "name": "CSB1 Ambalabe II", "coordinates": [49.307378, -17.352615] },
  { "name": "CSB1 Ambalafary", "coordinates": [48.482723, -15.608202] },
  { "name": "CSB1 Ambalahambana", "coordinates": [46.196655, -20.628436] },
  { "name": "CSB1 Ambalahonko", "coordinates": [47.705328, -14.454356] },
  { "name": "CSB1 Ambalakazaha", "coordinates": [47.52454, -22.562951] },
  { "name": "CSB1 Ambalakazaha", "coordinates": [44.391381, -18.919886] },
  { "name": "CSB1 Ambalakondro", "coordinates": [48.248519, -20.425823] },
  { "name": "CSB1 Ambalalehibe", "coordinates": [47.203122, -20.632953] },
  { "name": "CSB1 Ambalamadiro", "coordinates": [48.742286, -15.607794] },
  { "name": "CSB1 Ambalamahatsara", "coordinates": [46.848225, -20.74166] },
  { "name": "CSB1 Ambalamainty", "coordinates": [48.097222, -21.5459] },
  {
    "name": "CSB1 Ambalamanasy Mitsimbina IV",
    "coordinates": [49.381273, -18.137062]
  },
  { "name": "CSB1 Ambalamasy", "coordinates": [44.518068, -25.260096] },
  { "name": "CSB1 Ambalamoa", "coordinates": [43.630882, -21.521943] },
  { "name": "CSB1 Ambalaomby", "coordinates": [48.209426, -19.815211] },
  { "name": "CSB1 Ambalapaiso", "coordinates": [49.354385, -14.87409] },
  { "name": "CSB1 Ambalatraka", "coordinates": [47.552368, -22.612734] },
  { "name": "CSB1 Ambalavary", "coordinates": [47.908472, -14.780199] },
  { "name": "CSB1 Ambalavelona", "coordinates": [47.576999, -16.20412] },
  { "name": "CSB1 Ambalavolo", "coordinates": [47.851166, -20.713868] },
  { "name": "CSB1 Ambanja", "coordinates": [49.951594, -13.473322] },
  { "name": "CSB1 Ambararata", "coordinates": [44.171641, -20.710058] },
  { "name": "CSB1 Ambararata Loky", "coordinates": [49.423507, -13.023531] },
  { "name": "CSB1 Ambarijeby", "coordinates": [48.30637, -15.291938] },
  { "name": "CSB1 Ambarinanahary", "coordinates": [45.505375, -17.446445] },
  { "name": "CSB1 Ambariotelo", "coordinates": [50.022978, -14.26426] },
  { "name": "CSB1 Ambato", "coordinates": [47.563655, -19.133442] },
  { "name": "CSB1 Ambatobe", "coordinates": [48.634143, -16.98477] },
  { "name": "CSB1 Ambatofotsy", "coordinates": [48.202872, -20.196043] },
  { "name": "CSB1 Ambatoharanana", "coordinates": [48.377414, -19.718236] },
  { "name": "CSB1 Ambatoharanana", "coordinates": [49.037316, -12.911089] },
  {
    "name": "CSB1 Ambatoharanana Andasibe",
    "coordinates": [48.94623, -17.311461]
  },
  { "name": "CSB1 Ambatoharanana I", "coordinates": [48.995483, -15.253565] },
  { "name": "CSB1 Ambatoharanana II", "coordinates": [49.005211, -15.175115] },
  {
    "name": "CSB1 Ambatoharanana Miarinarivo",
    "coordinates": [49.145212, -17.670598]
  },
  { "name": "CSB1 Ambatolampikely", "coordinates": [47.525044, -19.674838] },
  { "name": "CSB1 Ambatoloaka", "coordinates": [48.207498, -13.39981] },
  { "name": "CSB1 Ambatomainty", "coordinates": [48.345602, -14.258359] },
  { "name": "CSB1 Ambatomalama", "coordinates": [48.324278, -17.044944] },
  { "name": "CSB1 Ambatomilo", "coordinates": [43.269333, -22.420483] },
  { "name": "CSB1 Ambatomitsangana", "coordinates": [47.297137, -18.677498] },
  { "name": "CSB1 Ambatondradama", "coordinates": [47.035547, -19.526292] },
  { "name": "CSB1 Ambatotsipihina", "coordinates": [46.155653, -19.582788] },
  { "name": "CSB1 Ambatovaky", "coordinates": [47.301718, -21.291549] },
  {
    "name": "CSB1 Ambatovaventy Andrefana",
    "coordinates": [47.300353, -19.710571]
  },
  {
    "name": "CSB1 Ambatovaventy Atsinanana",
    "coordinates": [47.400402, -19.806211]
  },
  { "name": "CSB1 Ambavala", "coordinates": [49.432096, -16.77201] },
  { "name": "CSB1 Ambavasambo", "coordinates": [47.823306, -17.771294] },
  { "name": "CSB1 Ambereny", "coordinates": [44.388314, -18.922443] },
  { "name": "CSB1 Amberobe", "coordinates": [47.762726, -19.284902] },
  { "name": "CSB1 Ambery", "coordinates": [49.332171, -12.799208] },
  { "name": "CSB1 Ambiky", "coordinates": [44.191946, -17.247841] },
  { "name": "CSB1 Ambiky", "coordinates": [44.317444, -23.532821] },
  { "name": "CSB1 Ambilamaina", "coordinates": [49.00009, -18.468857] },
  { "name": "CSB1 Ambinanibe", "coordinates": [46.94485, -25.050678] },
  { "name": "CSB1 Ambinanimangabe", "coordinates": [47.919277, -20.042396] },
  { "name": "CSB1 Ambinanindrano", "coordinates": [47.558743, -20.183246] },
  { "name": "CSB1 Ambinanindrano", "coordinates": [48.377785, -19.480122] },
  { "name": "CSB1 Ambinaninkosy", "coordinates": [48.167147, -19.948518] },
  { "name": "CSB1 Ambinda", "coordinates": [47.88197, -14.345091] },
  { "name": "CSB1 Ambingivato", "coordinates": [48.602209, -15.060497] },
  { "name": "CSB1 Ambinome", "coordinates": [47.130809, -20.544817] },
  { "name": "CSB1 Amboarabe", "coordinates": [48.522758, -18.066307] },
  { "name": "CSB1 Amboasarikely", "coordinates": [48.268448, -18.21668] },
  { "name": "CSB1 Ambodiakatra", "coordinates": [48.229061, -18.913004] },
  { "name": "CSB1 Ambodiamontana", "coordinates": [48.774034, -15.172817] },
  {
    "name": "CSB1 Ambodiampana Marogaona",
    "coordinates": [49.886606, -14.240216]
  },
  { "name": "CSB1 Ambodiara", "coordinates": [49.230041, -17.149196] },
  { "name": "CSB1 Ambodiara", "coordinates": [48.114382, -19.903775] },
  { "name": "CSB1 Ambodiara Dihy", "coordinates": [47.43862, -21.866821] },
  { "name": "CSB1 Ambodiara I", "coordinates": [48.29458, -20.022248] },
  {
    "name": "CSB1 Ambodiara Sakavazoho",
    "coordinates": [47.51417, -21.703896]
  },
  { "name": "CSB1 Ambodiara Sud", "coordinates": [47.687055, -20.78032] },
  { "name": "CSB1 Ambodiarahara", "coordinates": [48.449074, -15.356353] },
  { "name": "CSB1 Ambodiarakely", "coordinates": [48.229166, -19.780394] },
  { "name": "CSB1 Ambodiaramy", "coordinates": [49.666077, -15.294525] },
  { "name": "CSB1 Ambodiatafana", "coordinates": [48.165132, -17.831206] },
  { "name": "CSB1 Ambodiatafana", "coordinates": [50.010662, -16.720617] },
  { "name": "CSB1 Ambodiaviavy", "coordinates": [48.134846, -17.925733] },
  { "name": "CSB1 Ambodiaviavy", "coordinates": [48.048366, -20.30575] },
  { "name": "CSB1 Ambodibonara", "coordinates": [47.863759, -21.823056] },
  { "name": "CSB1 Ambodibonara", "coordinates": [50.085662, -13.970789] },
  { "name": "CSB1 Ambodifinesy", "coordinates": [48.385232, -13.708518] },
  { "name": "CSB1 Ambodiforaha", "coordinates": [49.855887, -17.034765] },
  { "name": "CSB1 Ambodihasina", "coordinates": [48.733221, -17.296208] },
  { "name": "CSB1 Ambodihasina", "coordinates": [49.42701, -17.494845] },
  {
    "name": "CSB1 Ambodihasina Saranambana",
    "coordinates": [49.207411, -17.261164]
  },
  { "name": "CSB1 Ambodihazinina", "coordinates": [49.27572, -17.369126] },
  { "name": "CSB1 Ambodimanga", "coordinates": [47.66986, -15.910572] },
  { "name": "CSB1 Ambodimanga", "coordinates": [47.995272, -16.267952] },
  { "name": "CSB1 Ambodimanga", "coordinates": [47.81678, -20.034742] },
  { "name": "CSB1 Ambodimanga I", "coordinates": [49.167591, -17.351825] },
  { "name": "CSB1 Ambodimanga II", "coordinates": [49.578964, -13.575574] },
  { "name": "CSB1 Ambodimanga II-A", "coordinates": [49.279038, -17.032722] },
  {
    "name": "CSB1 Ambodimanga Maromaintso",
    "coordinates": [48.257323, -19.597055]
  },
  {
    "name": "CSB1 Ambodimanga Nandihizana",
    "coordinates": [49.367896, -15.726995]
  },
  { "name": "CSB1 Ambodimanga Nord", "coordinates": [47.591152, -20.76116] },
  { "name": "CSB1 Ambodinanto", "coordinates": [49.380645, -16.910931] },
  { "name": "CSB1 Ambodinivato", "coordinates": [48.396334, -19.935193] },
  { "name": "CSB1 Ambodinonoka", "coordinates": [48.749652, -19.50138] },
  { "name": "CSB1 Ambodinonoka Vato", "coordinates": [47.801532, -19.947478] },
  { "name": "CSB1 Ambodirafia", "coordinates": [48.470455, -14.545464] },
  { "name": "CSB1 Ambodiriana", "coordinates": [47.631158, -19.483464] },
  { "name": "CSB1 Ambodiroranga", "coordinates": [47.55753, -21.548639] },
  { "name": "CSB1 Ambodisakoana", "coordinates": [48.412232, -13.697131] },
  { "name": "CSB1 Ambodivato", "coordinates": [45.202513, -18.063241] },
  { "name": "CSB1 Ambodivoahangy", "coordinates": [47.983448, -20.461105] },
  { "name": "CSB1 Ambodivohitra", "coordinates": [48.561318, -14.60044] },
  { "name": "CSB1 Ambodivontaka", "coordinates": [48.761259, -19.821338] },
  { "name": "CSB1 Ambohibary", "coordinates": [46.936295, -20.370562] },
  {
    "name": "CSB1 Ambohibary Sahatorendrika",
    "coordinates": [47.237957, -20.205385]
  },
  { "name": "CSB1 Ambohibe", "coordinates": [44.774999, -17.766999] },
  { "name": "CSB1 Ambohibe", "coordinates": [43.510165, -21.351929] },
  { "name": "CSB1 Ambohibe Didy", "coordinates": [48.551757, -18.16391] },
  { "name": "CSB1 Ambohiboatavo", "coordinates": [48.37541, -17.800594] },
  { "name": "CSB1 Ambohibolafotsy", "coordinates": [47.454608, -20.243451] },
  { "name": "CSB1 Ambohibory", "coordinates": [49.079416, -12.405092] },
  { "name": "CSB1 Ambohidehilahy", "coordinates": [48.317749, -17.799914] },
  { "name": "CSB1 Ambohidraisolo", "coordinates": [47.879317, -19.161348] },
  { "name": "CSB1 Ambohidravaka", "coordinates": [47.361443, -18.687332] },
  { "name": "CSB1 Ambohijanaka", "coordinates": [47.771765, -19.372468] },
  { "name": "CSB1 Ambohimalaza", "coordinates": [47.477933, -22.170604] },
  { "name": "CSB1 Ambohimanga", "coordinates": [48.481535, -17.68413] },
  { "name": "CSB1 Ambohimarina", "coordinates": [49.524396, -14.628887] },
  { "name": "CSB1 Ambohimiadana", "coordinates": [48.351435, -19.678757] },
  { "name": "CSB1 Ambohimiarina", "coordinates": [48.134588, -19.814323] },
  { "name": "CSB1 Ambohimirary", "coordinates": [47.724119, -18.331627] },
  { "name": "CSB1 Ambohimitsinjo", "coordinates": [48.523719, -15.410287] },
  { "name": "CSB1 Ambohimitsinjorano", "coordinates": [47.455176, -18.615825] },
  { "name": "CSB1 Ambohipananana", "coordinates": [47.236984, -20.315427] },
  { "name": "CSB1 Ambohipato", "coordinates": [49.336629, -13.818455] },
  { "name": "CSB1 Ambohipeno", "coordinates": [47.836483, -19.081105] },
  { "name": "CSB1 Ambohitanibe", "coordinates": [48.39007, -17.764014] },
  { "name": "CSB1 Ambohitrinibe II", "coordinates": [47.75061, -19.01538] },
  { "name": "CSB1 Ambohitromby", "coordinates": [46.592784, -19.415904] },
  { "name": "CSB1 Ambohitsampanana", "coordinates": [47.217466, -19.380299] },
  { "name": "CSB1 Ambohitsara", "coordinates": [47.128484, -20.424018] },
  { "name": "CSB1 Ambohitsara II", "coordinates": [47.478538, -22.253423] },
  { "name": "CSB1 Ambohitsimeloka", "coordinates": [47.765478, -18.969971] },
  { "name": "CSB1 Ambohitsy", "coordinates": [45.173501, -23.38998] },
  { "name": "CSB1 Ambolotarabe", "coordinates": [47.169581, -17.896788] },
  { "name": "CSB1 Ambondrombe", "coordinates": [44.695757, -21.293797] },
  { "name": "CSB1 Ambondrona", "coordinates": [46.93164, -19.379068] },
  { "name": "CSB1 Amborompotsy", "coordinates": [48.46304, -17.425221] },
  { "name": "CSB1 Amborondolo", "coordinates": [49.037315, -13.253973] },
  { "name": "CSB1 Amboronosy", "coordinates": [47.757497, -19.1401] },
  { "name": "CSB1 Amin'Ampanga", "coordinates": [47.648546, -18.994572] },
  { "name": "CSB1 Ampanataovana", "coordinates": [47.290914, -18.685848] },
  { "name": "CSB1 Ampanataovana", "coordinates": [47.347563, -19.791518] },
  { "name": "CSB1 Ampandrana", "coordinates": [47.129277, -20.416125] },
  { "name": "CSB1 Ampandrotrarana", "coordinates": [47.129809, -20.447156] },
  { "name": "CSB1 Ampaneva", "coordinates": [47.692704, -18.763532] },
  { "name": "CSB1 Ampangoriana", "coordinates": [46.698875, -23.305674] },
  { "name": "CSB1 Amparibe", "coordinates": [49.934635, -13.597614] },
  { "name": "CSB1 Ampasambazaha", "coordinates": [49.352055, -17.75197] },
  { "name": "CSB1 Ampasika", "coordinates": [48.008414, -18.820294] },
  { "name": "CSB1 Ampasimbengy", "coordinates": [49.234141, -12.730756] },
  { "name": "CSB1 Ampasimbola", "coordinates": [48.268441, -20.358049] },
  { "name": "CSB1 Ampasimbola", "coordinates": [48.585821, -20.011595] },
  { "name": "CSB1 Ampasimbola", "coordinates": [48.692967, -18.769506] },
  { "name": "CSB1 Ampasimbola II", "coordinates": [49.285212, -17.082353] },
  { "name": "CSB1 Ampasimpitily", "coordinates": [47.749701, -14.320713] },
  { "name": "CSB1 Ampasina", "coordinates": [49.065133, -17.521408] },
  { "name": "CSB1 Ampasindava", "coordinates": [48.475577, -13.350154] },
  { "name": "CSB1 Ampatranila", "coordinates": [46.974803, -23.41639] },
  {
    "name": "CSB1 Ampitabe/Ankazomanitra",
    "coordinates": [48.585332, -19.664486]
  },
  { "name": "CSB1 Ampitakihosy", "coordinates": [48.781081, -19.73675] },
  { "name": "CSB1 Ampitakilaka", "coordinates": [48.431716, -19.759025] },
  { "name": "CSB1 Ampitamalandy", "coordinates": [48.438865, -19.837188] },
  { "name": "CSB1 Ampombilava", "coordinates": [48.482595, -15.86665] },
  { "name": "CSB1 Ampontsilahy", "coordinates": [49.601115, -14.731294] },
  { "name": "CSB1 Anahidrano II", "coordinates": [47.638703, -15.498144] },
  { "name": "CSB1 Analakely", "coordinates": [47.477148, -20.247249] },
  { "name": "CSB1 Analalatsaka", "coordinates": [48.9984, -14.313] },
  { "name": "CSB1 Analamangahazo", "coordinates": [49.265954, -17.907592] },
  { "name": "CSB1 Analamarina Nord", "coordinates": [47.649532, -21.045128] },
  { "name": "CSB1 Analamary", "coordinates": [47.508367, -22.176314] },
  { "name": "CSB1 Analanana", "coordinates": [49.831691, -13.776032] },
  { "name": "CSB1 Analanantsoa", "coordinates": [50.050477, -14.590429] },
  { "name": "CSB1 Analasoa", "coordinates": [46.117269, -23.252324] },
  { "name": "CSB1 Analavinidy", "coordinates": [47.769108, -18.531735] },
  { "name": "CSB1 Anamborano", "coordinates": [49.041919, -17.723604] },
  { "name": "CSB1 Anandrobe", "coordinates": [48.2056, -17.8487] },
  { "name": "CSB1 Anarabe", "coordinates": [46.666009, -23.098413] },
  { "name": "CSB1 Andamasina", "coordinates": [50.185758, -14.791086] },
  { "name": "CSB1 Andampihely", "coordinates": [48.578859, -15.703127] },
  { "name": "CSB1 Andapabe", "coordinates": [49.3753, -17.17444] },
  { "name": "CSB1 Andapabe", "coordinates": [49.72372, -14.204276] },
  { "name": "CSB1 Andapahely", "coordinates": [49.619208, -14.695365] },
  { "name": "CSB1 Andapimena", "coordinates": [48.731167, -15.027486] },
  { "name": "CSB1 Andasinimaro", "coordinates": [48.828664, -14.631399] },
  { "name": "CSB1 Andatsakala", "coordinates": [49.885817, -14.398078] },
  { "name": "CSB1 Andemademaka", "coordinates": [48.610875, -17.846271] },
  { "name": "CSB1 Andemobe", "coordinates": [47.185066, -23.892049] },
  { "name": "CSB1 Andilana Sud", "coordinates": [48.242677, -17.570912] },
  { "name": "CSB1 Andilandrano", "coordinates": [49.570827, -14.772498] },
  { "name": "CSB1 Andimakabo", "coordinates": [48.342748, -13.335392] },
  { "name": "CSB1 Andoharano", "coordinates": [47.373345, -20.192772] },
  { "name": "CSB1 Andohariana", "coordinates": [46.951238, -19.380951] },
  { "name": "CSB1 Andonaka", "coordinates": [48.289335, -19.788253] },
  { "name": "CSB1 Andovolalina", "coordinates": [48.61356, -19.907315] },
  { "name": "CSB1 Andrafialava", "coordinates": [49.718732, -13.852528] },
  { "name": "CSB1 Andrahalana", "coordinates": [46.756, -20.599803] },
  { "name": "CSB1 Andranambolava", "coordinates": [48.177311, -20.110951] },
  { "name": "CSB1 Andranambomaro", "coordinates": [48.643217, -20.145247] },
  { "name": "CSB1 Andrangaranga", "coordinates": [48.007356, -19.589376] },
  { "name": "CSB1 Andranoambolava", "coordinates": [48.832315, -18.167596] },
  { "name": "CSB1 Andranofeno Sud", "coordinates": [47.148913, -18.2714] },
  { "name": "CSB1 Andranokobaka", "coordinates": [48.258778, -18.076266] },
  { "name": "CSB1 Andranokotona", "coordinates": [47.894835, -18.458886] },
  { "name": "CSB1 Andranolava", "coordinates": [47.206262, -21.367901] },
  { "name": "CSB1 Andranomadio", "coordinates": [47.637566, -15.903854] },
  { "name": "CSB1 Andranomalaza", "coordinates": [47.737777, -18.534564] },
  { "name": "CSB1 Andranomalaza", "coordinates": [48.610876, -17.846272] },
  { "name": "CSB1 Andranomalio", "coordinates": [45.096097, -20.301026] },
  { "name": "CSB1 Andranomanintsy", "coordinates": [44.694153, -21.973457] },
  { "name": "CSB1 Andranomanjaka", "coordinates": [46.812232, -19.306159] },
  { "name": "CSB1 Andranomavo", "coordinates": [48.4226, -20.7099] },
  { "name": "CSB1 Andranomena", "coordinates": [45.493243, -21.381122] },
  { "name": "CSB1 Andranomena", "coordinates": [49.932271, -14.693797] },
  {
    "name": "CSB1 Andranomiely Atsimo",
    "coordinates": [47.235112, -17.841023]
  },
  { "name": "CSB1 Andranomiforitra", "coordinates": [46.365853, -23.61656] },
  { "name": "CSB1 Andranonahoatra", "coordinates": [47.788929, -18.226617] },
  { "name": "CSB1 Andranovaky", "coordinates": [49.055261, -18.314969] },
  { "name": "CSB1 Andranovo", "coordinates": [48.479633, -15.107559] },
  { "name": "CSB1 Andranovory", "coordinates": [46.641129, -20.458362] },
  { "name": "CSB1 Andrapengy", "coordinates": [50.216596, -14.678928] },
  { "name": "CSB1 Andraramila", "coordinates": [47.293438, -21.574666] },
  { "name": "CSB1 Andrevo Bas", "coordinates": [43.477426, -22.964131] },
  { "name": "CSB1 Andriambe", "coordinates": [47.628439, -19.426888] },
  { "name": "CSB1 Andriankely", "coordinates": [47.36836, -20.07336] },
  { "name": "CSB1 Andriatsivalana", "coordinates": [47.542772, -19.290977] },
  { "name": "CSB1 Androfiamena", "coordinates": [49.633195, -13.228096] },
  {
    "name": "CSB1 Androrangavola Tsienta",
    "coordinates": [48.058641, -20.013159]
  },
  { "name": "CSB1 Androvatsimo", "coordinates": [47.146652, -18.251619] },
  { "name": "CSB1 Angodongodo", "coordinates": [45.322983, -23.590199] },
  { "name": "CSB1 Angodongodona", "coordinates": [47.822936, -19.177943] },
  { "name": "CSB1 Anivonisaina", "coordinates": [47.411648, -19.702341] },
  { "name": "CSB1 Anivorano", "coordinates": [49.964081, -16.789072] },
  { "name": "CSB1 Anivorano", "coordinates": [45.401094, -19.668835] },
  { "name": "CSB1 Anivorano I", "coordinates": [47.974429, -20.461978] },
  { "name": "CSB1 Anjahambe", "coordinates": [49.5041, -17.1132] },
  { "name": "CSB1 Anjajavy", "coordinates": [47.215845, -15.029104] },
  { "name": "CSB1 Anjanaborona", "coordinates": [48.624136, -14.645635] },
  { "name": "CSB1 Anjanamahazo", "coordinates": [47.292897, -19.115589] },
  { "name": "CSB1 Anjiabe Bobaomby", "coordinates": [49.318662, -12.114889] },
  { "name": "CSB1 Anjiabory", "coordinates": [48.249046, -13.886932] },
  { "name": "CSB1 Anjialavahely", "coordinates": [49.484755, -14.349667] },
  { "name": "CSB1 Anjira", "coordinates": [45.749724, -25.332212] },
  { "name": "CSB1 Anjiro", "coordinates": [48.943838, -16.094101] },
  { "name": "CSB1 Anjiro", "coordinates": [48.0236, -18.195537] },
  { "name": "CSB1 Anjiro", "coordinates": [49.305875, -17.449812] },
  { "name": "CSB1 Anjohy", "coordinates": [47.799895, -18.659773] },
  { "name": "CSB1 Anjozoro", "coordinates": [47.769571, -18.840966] },
  { "name": "CSB1 Ankadibe Mirary", "coordinates": [47.322991, -21.162797] },
  { "name": "CSB1 Ankadimpary", "coordinates": [49.157952, -17.825489] },
  { "name": "CSB1 Ankafobalo", "coordinates": [47.448556, -20.207122] },
  { "name": "CSB1 Ankafotra", "coordinates": [47.447639, -20.279769] },
  { "name": "CSB1 Ankaramainty", "coordinates": [47.182349, -20.62788] },
  { "name": "CSB1 Ankaramy", "coordinates": [49.422701, -13.036229] },
  { "name": "CSB1 Ankarany", "coordinates": [49.191128, -16.142025] },
  { "name": "CSB1 Ankarinarivo", "coordinates": [46.9313, -21.916542] },
  { "name": "CSB1 Ankazobe", "coordinates": [47.862882, -15.686753] },
  { "name": "CSB1 Ankazomasina", "coordinates": [47.509456, -18.756003] },
  { "name": "CSB1 Ankazomena", "coordinates": [47.900302, -15.42427] },
  { "name": "CSB1 Ankazongoaika", "coordinates": [47.73339, -18.233129] },
  { "name": "CSB1 Ankeniheny", "coordinates": [48.648482, -19.013618] },
  { "name": "CSB1 Anketrakabe", "coordinates": [49.315505, -13.39789] },
  { "name": "CSB1 Ankilibe Lamatihy", "coordinates": [44.416111, -22.8415] },
  { "name": "CSB1 Ankilimaro", "coordinates": [45.04303, -22.287582] },
  { "name": "CSB1 Ankilimionga", "coordinates": [44.505557, -16.547052] },
  { "name": "CSB1 Ankilimitraha", "coordinates": [46.70745, -25.162431] },
  { "name": "CSB1 Ankilimivony", "coordinates": [43.689079, -23.802993] },
  { "name": "CSB1 Ankilitelo", "coordinates": [44.313589, -22.861913] },
  { "name": "CSB1 Ankilivalobe", "coordinates": [45.040432, -22.258517] },
  { "name": "CSB1 Ankobakobaka", "coordinates": [48.268211, -15.123525] },
  { "name": "CSB1 Ankola Nord", "coordinates": [47.06517, -21.994439] },
  { "name": "CSB1 Ankonabe II", "coordinates": [46.96647, -19.282122] },
  { "name": "CSB1 Ankorabe", "coordinates": [49.359997, -17.28171] },
  { "name": "CSB1 Ankoraka", "coordinates": [48.160592, -19.412289] },
  { "name": "CSB1 Ankorefo", "coordinates": [49.088261, -12.410835] },
  { "name": "CSB1 Ankorona", "coordinates": [47.56847, -19.141713] },
  { "name": "CSB1 Ankosy", "coordinates": [47.374206, -20.649415] },
  { "name": "CSB1 Anoromby", "coordinates": [49.702366, -15.951625] },
  { "name": "CSB1 Anosikely", "coordinates": [48.487859, -19.496174] },
  { "name": "CSB1 Anosivola", "coordinates": [48.648542, -17.714068] },
  { "name": "CSB1 ANOSIVOLAKELY", "coordinates": [47.856586, -18.002038] },
  { "name": "CSB1 Anosy Rahidy", "coordinates": [47.989392, -20.275587] },
  { "name": "CSB1 Anove Nord", "coordinates": [49.801622, -16.616738] },
  { "name": "CSB1 Anovibe", "coordinates": [48.290484, -20.294312] },
  { "name": "CSB1 Antafiabe", "coordinates": [48.17673, -14.103113] },
  { "name": "CSB1 Antafiangita", "coordinates": [47.887515, -16.199973] },
  { "name": "CSB1 Antamiana", "coordinates": [47.807116, -19.8186] },
  {
    "name": "CSB1 Antanambao Sahavoanina",
    "coordinates": [48.462117, -15.350315]
  },
  { "name": "CSB1 Antanamiketraka", "coordinates": [49.976038, -13.99729] },
  { "name": "CSB1 Antananambo I", "coordinates": [48.683509, -15.359508] },
  { "name": "CSB1 Antanandava Sud", "coordinates": [48.442143, -17.929645] },
  { "name": "CSB1 Antandindo", "coordinates": [47.121786, -22.03872] },
  { "name": "CSB1 Antandrokomby", "coordinates": [48.503936, -17.697316] },
  {
    "name": "CSB1 Antanetibe Andrefana",
    "coordinates": [47.563105, -19.654409]
  },
  { "name": "CSB1 Antanetilava II", "coordinates": [49.306927, -17.44604] },
  { "name": "CSB1 Antanifotsy", "coordinates": [47.331854, -20.475573] },
  { "name": "CSB1 Antanimarina", "coordinates": [47.673723, -19.053345] },
  { "name": "CSB1 Antanimarina", "coordinates": [47.348287, -18.923724] },
  { "name": "CSB1 Antanimbaribe", "coordinates": [44.700637, -21.371271] },
  { "name": "CSB1 Antanimbaritsara", "coordinates": [47.654834, -19.527287] },
  { "name": "CSB1 Antanimena", "coordinates": [44.103248, -23.542351] },
  { "name": "CSB1 Antanimora", "coordinates": [47.297673, -16.188949] },
  { "name": "CSB1 Antavy Nord", "coordinates": [45.521867, -25.517847] },
  { "name": "CSB1 Antelopolo", "coordinates": [48.954461, -14.478057] },
  { "name": "CSB1 Antenina II", "coordinates": [49.44514, -17.879369] },
  { "name": "CSB1 Antetezanambo", "coordinates": [47.856586, -18.002038] },
  { "name": "CSB1 Antetezantany", "coordinates": [49.251477, -14.771471] },
  { "name": "CSB1 Antevamena", "coordinates": [45.659624, -24.464275] },
  { "name": "CSB1 Antevialabe", "coordinates": [49.16579, -16.540845] },
  { "name": "CSB1 Antevibe", "coordinates": [48.750368, -17.615134] },
  { "name": "CSB1 Antingana", "coordinates": [49.829158, -13.096488] },
  { "name": "CSB1 Antokazo", "coordinates": [48.560631, -17.670065] },
  { "name": "CSB1 Antongobato", "coordinates": [48.757371, -18.974235] },
  { "name": "CSB1 Antorovoka", "coordinates": [46.745165, -21.26715] },
  { "name": "CSB1 Antreaky", "coordinates": [45.194366, -25.126583] },
  { "name": "CSB1 Antsahabeorana", "coordinates": [49.886785, -14.868935] },
  { "name": "CSB1 Antsahaberaoka", "coordinates": [49.629244, -14.370089] },
  { "name": "CSB1 Antsahakely", "coordinates": [46.967061, -20.551549] },
  { "name": "CSB1 Antsahalalina", "coordinates": [50.009124, -14.314798] },
  { "name": "CSB1 Antsahambaharo", "coordinates": [49.947395, -14.505808] },
  { "name": "CSB1 Antsahampano", "coordinates": [49.743251, -13.207986] },
  { "name": "CSB1 Antsahampano", "coordinates": [48.452173, -13.681056] },
  { "name": "CSB1 Antsahanadrisa", "coordinates": [47.248981, -18.891923] },
  { "name": "CSB1 Antsahanonoka", "coordinates": [50.008499, -13.975405] },
  { "name": "CSB1 Antsahogno", "coordinates": [48.553029, -15.468412] },
  {
    "name": "CSB1 Antsambalahy II Ankavia",
    "coordinates": [50.101042, -15.112042]
  },
  { "name": "CSB1 Antsatrabevoa", "coordinates": [48.303826, -13.214003] },
  { "name": "CSB1 Antsatrana", "coordinates": [48.333489, -15.647733] },
  { "name": "CSB1 Antsely Be", "coordinates": [45.527742, -24.11841] },
  { "name": "CSB1 Antseta", "coordinates": [45.204546, -25.208076] },
  { "name": "CSB1 Antsevakely", "coordinates": [48.118136, -16.491714] },
  { "name": "CSB1 Antsingilotoka", "coordinates": [44.620161, -18.020709] },
  { "name": "CSB1 Antsiradava", "coordinates": [49.388997, -17.102428] },
  { "name": "CSB1 Antsirambany", "coordinates": [47.077337, -19.35386] },
  { "name": "CSB1 Antsiravaza", "coordinates": [46.862, -20.12] },
  { "name": "CSB1 Antsiriribe", "coordinates": [47.553063, -19.573066] },
  { "name": "CSB1 Antsoamaina", "coordinates": [46.908676, -20.295905] },
  { "name": "CSB1 Antsomangana", "coordinates": [48.446888, -17.191213] },
  { "name": "CSB1 Antsopary", "coordinates": [47.412919, -20.334807] },
  { "name": "CSB1 Avarabohitra", "coordinates": [47.177039, -20.037624] },
  { "name": "CSB1 Babaria_NF", "coordinates": [46.442889, -24.011165] },
  {
    "name": "CSB1 Bakaro Andingandingana",
    "coordinates": [47.679775, -19.382202]
  },
  { "name": "CSB1 Beakanga", "coordinates": [46.270235, -19.952812] },
  { "name": "CSB1 Beamalo", "coordinates": [45.045386, -23.985749] },
  { "name": "CSB1 Beamalo", "coordinates": [45.251162, -24.136012] },
  { "name": "CSB1 Bebokoy", "coordinates": [45.157153, -17.874386] },
  { "name": "CSB1 Bedia", "coordinates": [47.789116, -18.765128] },
  { "name": "CSB1 Befamonty", "coordinates": [43.644976, -21.429138] },
  { "name": "CSB1 Befandefa", "coordinates": [43.303258, -22.146985] },
  { "name": "CSB1 Befiana", "coordinates": [49.80359, -13.958731] },
  { "name": "CSB1 Befotaka", "coordinates": [48.260365, -13.254557] },
  { "name": "CSB1 Befoza", "coordinates": [49.516669, -16.18871] },
  { "name": "CSB1 Behena Fandraofana", "coordinates": [47.311895, -20.549343] },
  { "name": "CSB1 Bekimpay", "coordinates": [43.776077, -22.159787] },
  { "name": "CSB1 Bekofafa", "coordinates": [47.055891, -23.534817] },
  { "name": "CSB1 Belalandana", "coordinates": [48.180717, -15.812612] },
  { "name": "CSB1 Belefitra", "coordinates": [48.616886, -15.812697] },
  { "name": "CSB1 Belolo", "coordinates": [45.482823, -19.806319] },
  { "name": "CSB1 Bema", "coordinates": [45.540097, -25.544519] },
  { "name": "CSB1 Bemanevika", "coordinates": [47.865918, -15.58976] },
  { "name": "CSB1 Bemarivo", "coordinates": [44.76858, -21.712755] },
  { "name": "CSB1 Bemoka", "coordinates": [48.003022, -21.215578] },
  { "name": "CSB1 Bemoka", "coordinates": [44.290674, -23.574712] },
  { "name": "CSB1 Bemokotra Sud", "coordinates": [44.097135, -17.41035] },
  { "name": "CSB1 Bemonto", "coordinates": [44.421458, -18.557627] },
  { "name": "CSB1 Benara", "coordinates": [48.751201, -14.892771] },
  { "name": "CSB1 Benetse", "coordinates": [43.565567, -22.962164] },
  { "name": "CSB1 Bepeha", "coordinates": [45.439371, -19.735993] },
  { "name": "CSB1 Beraty", "coordinates": [48.249457, -14.035081] },
  { "name": "CSB1 Beravy", "coordinates": [44.641407, -21.325344] },
  { "name": "CSB1 Beronono", "coordinates": [48.441651, -15.574355] },
  { "name": "CSB1 Beronono", "coordinates": [47.550953, -19.939557] },
  { "name": "CSB1 Beronono Tsivoko", "coordinates": [45.494605, -21.381995] },
  { "name": "CSB1 Besely", "coordinates": [44.436107, -23.74047] },
  { "name": "CSB1 Besofina", "coordinates": [47.554929, -20.299074] },
  { "name": "CSB1 Betalevana", "coordinates": [48.314641, -17.052945] },
  { "name": "CSB1 Betamenaka", "coordinates": [43.705606, -21.475773] },
  { "name": "CSB1 Betampona", "coordinates": [48.387104, -19.766148] },
  { "name": "CSB1 Beteny Haragnila", "coordinates": [45.144091, -21.902698] },
  { "name": "CSB1 Beteva", "coordinates": [45.411284, -19.481366] },
  { "name": "CSB1 Betoafo", "coordinates": [47.612822, -23.350448] },
  { "name": "CSB1 Betsioky Somotse", "coordinates": [43.726312, -22.455499] },
  { "name": "CSB1 Bevantaza", "coordinates": [44.375624, -20.58847] },
  { "name": "CSB1 Bezamba", "coordinates": [48.772077, -18.544208] },
  { "name": "CSB1 Bezavona", "coordinates": [47.936346, -13.903062] },
  { "name": "CSB1 Bohaky Haut", "coordinates": [45.017023, -23.729113] },
  { "name": "CSB1 Edasotse", "coordinates": [45.603104, -24.665724] },
  { "name": "CSB1 Etsingilo", "coordinates": [47.671571, -22.480046] },
  { "name": "CSB1 Faliarivo", "coordinates": [47.319217, -20.777564] },
  { "name": "CSB1 Faliarivo", "coordinates": [47.32553, -22.11134] },
  { "name": "CSB1 Fampotabe", "coordinates": [50.138491, -15.936529] },
  { "name": "CSB1 Fandrianakely", "coordinates": [47.297817, -20.210616] },
  { "name": "CSB1 Farihitsara", "coordinates": [47.132564, -20.06998] },
  { "name": "CSB1 Fenoarivo", "coordinates": [48.146127, -19.701584] },
  { "name": "CSB1 Fenoarivo", "coordinates": [48.327671, -19.81804] },
  { "name": "CSB1 Fenomanana Voahangy", "coordinates": [46.82159, -19.519044] },
  { "name": "CSB1 Fenomby", "coordinates": [47.287045, -22.59052] },
  { "name": "CSB1 Fierenantsoa", "coordinates": [47.095326, -20.198816] },
  { "name": "CSB1 Fihasinana", "coordinates": [47.664313, -19.08601] },
  { "name": "CSB1 Firifiry", "coordinates": [47.677419, -22.532983] },
  { "name": "CSB1 Fizono", "coordinates": [49.937933, -15.375583] },
  { "name": "CSB1 Horifatra", "coordinates": [48.783137, -17.96546] },
  { "name": "CSB1 Iabomary", "coordinates": [47.542873, -23.336528] },
  { "name": "CSB1 Iaborano", "coordinates": [45.107399, -22.230053] },
  { "name": "CSB1 Ifaho", "coordinates": [47.869602, -22.001221] },
  { "name": "CSB1 Ifasina", "coordinates": [46.662896, -20.526188] },
  { "name": "CSB1 Iharana", "coordinates": [47.351308, -20.308288] },
  { "name": "CSB1 Ihorombe", "coordinates": [46.460217, -20.913522] },
  { "name": "CSB1 Ilampy", "coordinates": [47.37019, -20.523078] },
  { "name": "CSB1 Ipingo", "coordinates": [45.413868, -21.594497] },
  { "name": "CSB1 Irindra", "coordinates": [47.103462, -17.804805] },
  { "name": "CSB1 Iritsoka kevivaho", "coordinates": [46.119782, -23.0115] },
  { "name": "CSB1 Isahy Tangimaso", "coordinates": [47.097425, -21.245733] },
  { "name": "CSB1 Ivary", "coordinates": [46.90746, -20.600137] },
  { "name": "CSB1 Ivohitsoa", "coordinates": [45.903139, -23.11163] },
  { "name": "CSB1 Ivolobe", "coordinates": [47.082214, -24.653103] },
  { "name": "CSB1 KATSORY", "coordinates": [48.166806, -14.143915] },
  { "name": "CSB1 Kelilalina", "coordinates": [47.073892, -19.438616] },
  { "name": "CSB1 Kelivondraky", "coordinates": [44.592112, -21.919011] },
  { "name": "CSB1 Kianjasoa", "coordinates": [47.053949, -19.584744] },
  { "name": "CSB1 Kiremba", "coordinates": [46.764733, -23.277736] },
  { "name": "CSB1 Kirimosa", "coordinates": [44.867741, -25.126539] },
  { "name": "CSB1 Laimbolo", "coordinates": [47.125, -20.106] },
  { "name": "CSB1 Lakandrano", "coordinates": [47.542493, -20.093945] },
  { "name": "CSB1 Lalangina", "coordinates": [46.863078, -21.91028] },
  { "name": "CSB1 Lanivolo", "coordinates": [49.025244, -18.475954] },
  { "name": "CSB1 Lavajiro", "coordinates": [48.162939, -20.06668] },
  { "name": "CSB1 Lavakianja", "coordinates": [47.88807, -21.283964] },
  { "name": "CSB1 Lavakianja", "coordinates": [48.058401, -19.567847] },
  { "name": "CSB1 Lavakianja", "coordinates": [47.764828, -20.341432] },
  { "name": "CSB1 Lavaravy", "coordinates": [44.377687, -20.69421] },
  { "name": "CSB1 Lavarojo", "coordinates": [49.970627, -13.923273] },
  { "name": "CSB1 Liolava", "coordinates": [45.210385, -23.781153] },
  { "name": "CSB1 Lohanantsahabe", "coordinates": [49.889741, -14.512878] },
  { "name": "CSB1 Loharano", "coordinates": [48.101565, -21.952249] },
  { "name": "CSB1 Lohatranambo", "coordinates": [47.533763, -22.809607] },
  { "name": "CSB1 Lohena", "coordinates": [44.274765, -20.745974] },
  { "name": "CSB1 Lomboka", "coordinates": [49.0271, -18.1568] },
  {
    "name": "CSB1 Lycee RR Fianarantsoa I",
    "coordinates": [47.089078, -21.455362]
  },
  { "name": "CSB1 Madiofasina", "coordinates": [47.87961, -20.395596] },
  { "name": "CSB1 Mahakary", "coordinates": [48.267611, -17.724222] },
  { "name": "CSB1 Mahalavolona", "coordinates": [47.23503, -18.890829] },
  { "name": "CSB1 Mahaleotse", "coordinates": [43.956614, -23.45258] },
  { "name": "CSB1 Mahalina", "coordinates": [48.182875, -15.54692] },
  { "name": "CSB1 Mahalina", "coordinates": [49.569955, -16.087347] },
  { "name": "CSB1 Mahamany", "coordinates": [47.194412, -23.410615] },
  { "name": "CSB1 Mahamany T", "coordinates": [47.689435, -23.288506] },
  {
    "name": "CSB1 Maharidaza Atsinanana",
    "coordinates": [47.322861, -18.274448]
  },
  { "name": "CSB1 Mahasoa", "coordinates": [47.785449, -21.517878] },
  { "name": "CSB1 Mahasoa 1", "coordinates": [48.967858, -17.571674] },
  { "name": "CSB1 Mahatsara", "coordinates": [48.418357, -17.924489] },
  { "name": "CSB1 Mahatsara II", "coordinates": [49.485284, -17.631882] },
  { "name": "CSB1 Mahatsinjo", "coordinates": [48.714505, -17.241652] },
  { "name": "CSB1 Mahatsinjo", "coordinates": [47.107948, -20.071842] },
  { "name": "CSB1 Mahavoky Sud", "coordinates": [48.363892, -21.03941] },
  { "name": "CSB1 Mahazina", "coordinates": [46.877763, -20.306799] },
  { "name": "CSB1 Mahela", "coordinates": [48.182541, -19.369994] },
  { "name": "CSB1 Makaraingo", "coordinates": [45.590434, -17.981956] },
  { "name": "CSB1 Malakialina", "coordinates": [46.9953, -20.418379] },
  { "name": "CSB1 Malandira", "coordinates": [44.272727, -21.643989] },
  { "name": "CSB1 Manakambahiny", "coordinates": [46.611697, -19.037583] },
  { "name": "CSB1 Manakambahiny kely", "coordinates": [48.515883, -18.018494] },
  { "name": "CSB1 Manakana", "coordinates": [49.953727, -13.74513] },
  {
    "name": "CSB1 Manakana Ankaranila",
    "coordinates": [48.622143, -20.203925]
  },
  { "name": "CSB1 Manakana Antsindra", "coordinates": [47.843693, -20.943987] },
  { "name": "CSB1 Manakana II", "coordinates": [47.696033, -20.234939] },
  { "name": "CSB1 Manambarivo", "coordinates": [47.443576, -23.197268] },
  { "name": "CSB1 Manambato", "coordinates": [47.273254, -24.511886] },
  { "name": "CSB1 Manambolo", "coordinates": [49.280622, -18.327273] },
  { "name": "CSB1 Manambonitra", "coordinates": [48.934882, -18.978078] },
  { "name": "CSB1 Manamby", "coordinates": [44.748342, -20.385099] },
  { "name": "CSB1 Mananara", "coordinates": [49.103484, -12.309272] },
  { "name": "CSB1 Manankasina", "coordinates": [47.946103, -18.120211] },
  { "name": "CSB1 Manantsoa", "coordinates": [47.516057, -18.752886] },
  { "name": "CSB1 Manasoa Fanjahira", "coordinates": [44.719273, -23.475549] },
  { "name": "CSB1 Manatotsikora", "coordinates": [47.667261, -22.332678] },
  { "name": "CSB1 Manazary", "coordinates": [47.20022, -18.46082] },
  { "name": "CSB1 Mandalahy", "coordinates": [47.238653, -21.272566] },
  { "name": "CSB1 Mandanivatsy", "coordinates": [48.054609, -18.243763] },
  { "name": "CSB1 Mandazaka", "coordinates": [46.524168, -22.00477] },
  { "name": "CSB1 Mandemoka", "coordinates": [48.368304, -20.143189] },
  { "name": "CSB1 Mandritsara", "coordinates": [47.547511, -23.516309] },
  { "name": "CSB1 Mandroromody II", "coordinates": [48.283146, -20.771246] },
  { "name": "CSB1 Mangabe", "coordinates": [47.716094, -19.176215] },
  { "name": "CSB1 Mangasoavina", "coordinates": [47.032521, -18.177032] },
  { "name": "CSB1 Mangatany", "coordinates": [48.282969, -17.909389] },
  { "name": "CSB1 Manirenja", "coordinates": [48.49646, -14.237508] },
  { "name": "CSB1 Manjaka Ouest", "coordinates": [47.555083, -19.26028] },
  { "name": "CSB1 Manoy", "coordinates": [43.797601, -22.030251] },
  { "name": "CSB1 Marangibato", "coordinates": [48.583697, -15.795113] },
  { "name": "CSB1 Marerano", "coordinates": [48.429385, -14.97912] },
  { "name": "CSB1 Mariarano", "coordinates": [49.63879, -15.358313] },
  { "name": "CSB1 Maroaboaly", "coordinates": [48.374149, -15.774093] },
  { "name": "CSB1 Maroadabo", "coordinates": [48.825133, -15.284667] },
  { "name": "CSB1 Maroangaty", "coordinates": [47.00245, -23.605962] },
  { "name": "CSB1 Maroangira", "coordinates": [47.327573, -22.34759] },
  { "name": "CSB1 Maroariana I", "coordinates": [47.948408, -20.025144] },
  { "name": "CSB1 Marobory", "coordinates": [45.426594, -23.790184] },
  { "name": "CSB1 Marofangady", "coordinates": [46.973636, -19.80048] },
  { "name": "CSB1 Marofatsy", "coordinates": [48.084446, -20.118863] },
  { "name": "CSB1 Marofody", "coordinates": [47.977122, -17.465456] },
  { "name": "CSB1 Marogoaika", "coordinates": [46.439711, -19.676409] },
  { "name": "CSB1 Marokindro", "coordinates": [48.276556, -13.314654] },
  { "name": "CSB1 Marolopotra", "coordinates": [47.319139, -15.57597] },
  { "name": "CSB1 Maromanana", "coordinates": [47.489463, -20.886057] },
  { "name": "CSB1 Maromandroso", "coordinates": [48.871383, -15.441065] },
  { "name": "CSB1 Maromiandra Sud", "coordinates": [45.432057, -21.56969] },
  { "name": "CSB1 Marosely", "coordinates": [48.374732, -13.715127] },
  { "name": "CSB1 Marosiky", "coordinates": [48.880663, -19.542435] },
  { "name": "CSB1 Marotsingala", "coordinates": [46.672958, -19.113057] },
  { "name": "CSB1 Marovaho", "coordinates": [45.339143, -24.65855] },
  { "name": "CSB1 Marovato", "coordinates": [48.5852, -19.3097] },
  { "name": "CSB1 Marovitsika Haut", "coordinates": [47.829284, -15.774043] },
  { "name": "CSB1 Marovotry", "coordinates": [48.975678, -15.187264] },
  { "name": "CSB1 Masakalina NC 08", "coordinates": [47.883535, -18.335578] },
  { "name": "CSB1 Masoarivo", "coordinates": [44.734, -19.656] },
  { "name": "CSB1 Matavay", "coordinates": [47.276755, -23.444818] },
  { "name": "CSB1 Mazava", "coordinates": [48.598547, -15.456215] },
  { "name": "CSB1 Menara", "coordinates": [49.53215, -16.581856] },
  { "name": "CSB1 Miadakofeno", "coordinates": [46.968536, -20.355214] },
  { "name": "CSB1 Miarinarivo", "coordinates": [48.388889, -17.391663] },
  {
    "name": "CSB1 Miarinarivo Ambinanindovoka",
    "coordinates": [47.116382, -21.906395]
  },
  { "name": "CSB1 MIGIOKO", "coordinates": [48.48583, -13.895467] },
  { "name": "CSB1 Mikaikarivo Haut", "coordinates": [45.552394, -24.42441] },
  { "name": "CSB1 Misokitra", "coordinates": [44.357351, -20.584133] },
  { "name": "CSB1 Mokotibe", "coordinates": [44.411814, -18.676843] },
  { "name": "CSB1 Morafeno II", "coordinates": [47.978712, -19.602844] },
  { "name": "CSB1 Morarano", "coordinates": [47.938747, -20.057058] },
  { "name": "CSB1 Morarano", "coordinates": [48.979306, -12.735455] },
  {
    "name": "CSB1 Morarano Ambohibary",
    "coordinates": [47.550415, -18.028606]
  },
  {
    "name": "CSB1 Morarano Mandriambero",
    "coordinates": [47.251049, -18.500439]
  },
  { "name": "CSB1 Morarano Toby", "coordinates": [47.927636, -21.316212] },
  {
    "name": "CSB1 Morodrano Trafonomby",
    "coordinates": [47.145242, -19.586252]
  },
  { "name": "CSB1 Moronivo", "coordinates": [49.743543, -16.621158] },
  { "name": "CSB1 Motombositra", "coordinates": [45.27167, -25.302391] },
  { "name": "CSB1 Namelarana", "coordinates": [48.629606, -19.59578] },
  { "name": "CSB1 Namirana", "coordinates": [48.549937, -20.16326] },
  { "name": "CSB1 Namoasy", "coordinates": [44.25371, -17.695523] },
  { "name": "CSB1 Nanandrana", "coordinates": [47.417932, -20.513536] },
  { "name": "CSB1 Nanarena", "coordinates": [47.614167, -21.861319] },
  { "name": "CSB1 Nierana Vohidahy", "coordinates": [46.916164, -20.934926] },
  { "name": "CSB1 Nosoa", "coordinates": [47.491571, -23.722868] },
  { "name": "CSB1 Nosy Mitsio", "coordinates": [48.594096, -12.911521] },
  { "name": "CSB1 Pilakibe", "coordinates": [48.962995, -13.077614] },
  { "name": "CSB1 Rangainomby", "coordinates": [43.925249, -21.817367] },
  { "name": "CSB1 Rangodona", "coordinates": [48.350399, -14.999478] },
  { "name": "CSB1 Ranomainty", "coordinates": [49.04439, -18.900499] },
  { "name": "CSB1 Ranomainty Vohibe", "coordinates": [47.300848, -20.143445] },
  { "name": "CSB1 Ranomena Bekininy", "coordinates": [46.784281, -22.710435] },
  { "name": "CSB1 Ranomena II", "coordinates": [49.374263, -18.067048] },
  { "name": "CSB1 Rantohely", "coordinates": [49.953249, -15.612746] },
  { "name": "CSB1 Rantolava", "coordinates": [49.427861, -17.251581] },
  { "name": "CSB1 Ratsianarana", "coordinates": [50.453709, -15.461589] },
  { "name": "CSB1 Sahafotra", "coordinates": [49.852741, -15.366599] },
  { "name": "CSB1 Sahajinja", "coordinates": [49.283571, -16.640825] },
  { "name": "CSB1 Sahamahitra", "coordinates": [48.334232, -20.005247] },
  { "name": "CSB1 Sahamandresy", "coordinates": [46.988455, -20.944595] },
  { "name": "CSB1 Sahamorona", "coordinates": [49.047493, -18.797481] },
  { "name": "CSB1 Sahananty", "coordinates": [48.517074, -19.679359] },
  { "name": "CSB1 Sahanavo", "coordinates": [47.957236, -19.945468] },
  { "name": "CSB1 Sahanivotry Atsinanana", "coordinates": [47.268999, -20.01] },
  { "name": "CSB1 Sahanory", "coordinates": [44.214148, -22.240884] },
  { "name": "CSB1 Saharevo", "coordinates": [48.188893, -18.924046] },
  { "name": "CSB1 Sahasifotra", "coordinates": [49.953358, -16.837786] },
  { "name": "CSB1 Sahasoa", "coordinates": [49.815232, -16.35367] },
  { "name": "CSB1 Sahavolo", "coordinates": [48.648125, -17.045186] },
  { "name": "CSB1 Sainte Anne", "coordinates": [47.471434, -20.530687] },
  { "name": "CSB1 Sakalava", "coordinates": [48.339891, -19.847705] },
  { "name": "CSB1 Salangina", "coordinates": [48.915902, -17.46627] },
  { "name": "CSB1 Salemanana", "coordinates": [48.26784, -19.800386] },
  { "name": "CSB1 Sarahandrano", "coordinates": [49.968307, -13.965787] },
  { "name": "CSB1 Sarilasy", "coordinates": [47.496321, -23.70125] },
  { "name": "CSB1 Sarinosy", "coordinates": [47.479765, -22.903141] },
  { "name": "CSB1 Sarodrano", "coordinates": [47.62702, -15.78043] },
  { "name": "CSB1 Seranana", "coordinates": [47.851416, -21.473511] },
  { "name": "CSB1 Sihanakampaha", "coordinates": [45.17949, -25.078022] },
  { "name": "CSB1 Siranana", "coordinates": [48.698371, -13.506562] },
  { "name": "CSB1 Soalengo", "coordinates": [44.305847, -21.292984] },
  { "name": "CSB1 Soamiakatra", "coordinates": [47.401231, -19.887815] },
  { "name": "CSB1 Soanierana", "coordinates": [47.58464, -20.727142] },
  { "name": "CSB1 Soarano", "coordinates": [45.462231, -20.249828] },
  { "name": "CSB1 Soaserana", "coordinates": [45.523145, -20.021429] },
  { "name": "CSB1 Soatanana", "coordinates": [49.117232, -14.468057] },
  { "name": "CSB1 Soatanimbary", "coordinates": [45.487212, -20.087523] },
  { "name": "CSB1 Soatsirana", "coordinates": [47.595466, -23.202966] },
  { "name": "CSB1 Soavinarivo", "coordinates": [47.777391, -18.498919] },
  { "name": "CSB1 Talaky Bas", "coordinates": [45.711091, -25.443815] },
  { "name": "CSB1 Talata Iary", "coordinates": [47.271979, -20.44179] },
  { "name": "CSB1 Tamboholava", "coordinates": [47.606217, -22.272558] },
  { "name": "CSB1 Tanambao", "coordinates": [45.184004, -21.675363] },
  { "name": "CSB1 Tanambao", "coordinates": [44.754603, -20.938573] },
  { "name": "CSB1 Tanambao Ampano", "coordinates": [49.715674, -15.333315] },
  { "name": "CSB1 Tanambao I", "coordinates": [48.797348, -19.657294] },
  { "name": "CSB1 Tanambao Loky", "coordinates": [49.63037, -12.830931] },
  { "name": "CSB1 Tanambao Mangily", "coordinates": [49.4326, -13.027343] },
  {
    "name": "CSB1 Tanambao Tratranaingitra",
    "coordinates": [48.497669, -19.840816]
  },
  { "name": "CSB1 Tanamena", "coordinates": [49.460051, -17.593779] },
  { "name": "CSB1 Tanandava", "coordinates": [46.90625, -22.668583] },
  { "name": "CSB1 Tanandava", "coordinates": [48.41465, -20.9933] },
  { "name": "CSB1 Tanandava Antenina", "coordinates": [49.370406, -16.510341] },
  { "name": "CSB1 Tanandava Manompana", "coordinates": [49.717981, -16.69797] },
  { "name": "CSB1 Tanantsoa", "coordinates": [45.022998, -24.232002] },
  { "name": "CSB1 Tolandravina", "coordinates": [47.962324, -19.789999] },
  { "name": "CSB1 Tomboarivo", "coordinates": [46.876043, -20.319042] },
  { "name": "CSB1 Tsangandrano", "coordinates": [46.728667, -20.280363] },
  { "name": "CSB1 Tsarahonenana", "coordinates": [47.487003, -18.60932] },
  { "name": "CSB1 Tsarahotana", "coordinates": [44.841636, -19.768269] },
  { "name": "CSB1 Tsarakianja", "coordinates": [47.420119, -22.14431] },
  { "name": "CSB1 Tsaramiakatra", "coordinates": [46.060552, -19.583024] },
  { "name": "CSB1 Tsaratampona I", "coordinates": [49.298777, -17.230872] },
  { "name": "CSB1 Tsaratanana", "coordinates": [49.923153, -14.397667] },
  { "name": "CSB1 Tsaravinany", "coordinates": [47.93278, -20.883659] },
  { "name": "CSB1 Tsianaloka", "coordinates": [44.699668, -19.746562] },
  { "name": "CSB1 Tsinjoarivo", "coordinates": [48.224209, -17.889589] },
  { "name": "CSB1 Tsinjoarivo", "coordinates": [47.421123, -19.030301] },
  { "name": "CSB1 Tsinjony", "coordinates": [47.516958, -19.149035] },
  { "name": "CSB1 Tsitakadahy", "coordinates": [45.054428, -22.304549] },
  { "name": "CSB1 Vatanalialy", "coordinates": [45.180695, -23.800626] },
  { "name": "CSB1 Vatolambo", "coordinates": [47.834119, -21.795912] },
  { "name": "CSB1 Vatomitsangana", "coordinates": [47.567011, -20.155723] },
  { "name": "CSB1 Vatomora", "coordinates": [49.372951, -16.805053] },
  { "name": "CSB1 Vavazahana", "coordinates": [49.245488, -17.53731] },
  { "name": "CSB1 Vinaninoro", "coordinates": [47.268962, -20.51193] },
  { "name": "CSB1 Voenana", "coordinates": [46.963411, -20.526185] },
  { "name": "CSB1 Vohibola", "coordinates": [48.125185, -19.752482] },
  { "name": "CSB1 Vohidamba", "coordinates": [48.067422, -20.152899] },
  { "name": "CSB1 Vohilava", "coordinates": [49.200425, -17.355521] },
  { "name": "CSB1 Vohimarina", "coordinates": [46.383901, -19.203749] },
  { "name": "CSB1 Vohitraivo", "coordinates": [48.606459, -17.346592] },
  { "name": "CSB1 Vohitrambo", "coordinates": [47.466999, -20.134601] },
  { "name": "CSB1 Vohitrandriana", "coordinates": [49.451309, -17.887661] },
  { "name": "CSB1 Vohitrarivo", "coordinates": [45.57956, -24.659212] },
  { "name": "CSB1 Vohitromby", "coordinates": [48.408318, -20.329395] },
  { "name": "CSB1 Vohitsova", "coordinates": [45.677843, -24.813891] },
  { "name": "CSB1 Volarivo", "coordinates": [47.455595, -21.891393] },
  { "name": "CSB1 Vondrove", "coordinates": [44.142046, -21.786265] },
  { "name": "CSB1 Vorehe", "coordinates": [43.634039, -22.261534] },
  { "name": "CSB1 Zadava", "coordinates": [44.376406, -20.705041] },
  { "name": "CSB1 Zanabahona", "coordinates": [47.3247, -20.454941] },
  { "name": "CSB1 Zomandao", "coordinates": [46.447316, -21.85226] },
  { "name": "CSB1_ Sainte Luce", "coordinates": [47.152737, -24.762383] },
  {
    "name": "CSB2  Dispensaire Urbain",
    "coordinates": [49.399469, -18.146023]
  },
  { "name": "CSB2 Aboalimena", "coordinates": [44.448008, -19.262658] },
  { "name": "CSB2 Alakamisikely", "coordinates": [47.160027, -19.197057] },
  { "name": "CSB2 Alakamisy", "coordinates": [47.933149, -18.537061] },
  { "name": "CSB2 Alakamisy", "coordinates": [46.985582, -19.804559] },
  {
    "name": "CSB2 Alakamisy Ambohijato",
    "coordinates": [47.315201, -20.567302]
  },
  {
    "name": "CSB2 Alakamisy Ambohimaha",
    "coordinates": [47.219709, -21.325022]
  },
  {
    "name": "CSB2 Alakamisy Ambohimahazo",
    "coordinates": [47.383619, -20.474392]
  },
  {
    "name": "CSB2 Alakamisy Anativato",
    "coordinates": [46.906571, -19.881768]
  },
  { "name": "CSB2 Alakamisy Itenina", "coordinates": [47.156863, -21.646122] },
  { "name": "CSB2 Alarobia", "coordinates": [47.723595, -18.966459] },
  { "name": "CSB2 Alarobia Bemaha", "coordinates": [46.910702, -20.100092] },
  { "name": "CSB2 Alarobia Vatosola", "coordinates": [47.750097, -19.228444] },
  { "name": "CSB2 Alasora", "coordinates": [47.568491, -18.958224] },
  { "name": "CSB2 Alatsinainikely", "coordinates": [46.565748, -18.933228] },
  {
    "name": "CSB2 Alatsinainy Ambazaha",
    "coordinates": [47.458426, -18.975805]
  },
  { "name": "CSB2 Alatsinainy Bakaro", "coordinates": [47.681062, -19.322456] },
  { "name": "CSB2 Ambahatrazo", "coordinates": [47.898859, -21.858432] },
  { "name": "CSB2 Ambahikily", "coordinates": [43.67128, -21.60459] },
  { "name": "CSB2 Ambahita", "coordinates": [45.260784, -24.007484] },
  { "name": "CSB2 Ambahive", "coordinates": [47.740907, -22.190614] },
  { "name": "CSB2 Ambahoabe", "coordinates": [49.505398, -16.771153] },
  { "name": "CSB2 Ambahy", "coordinates": [48.479301, -20.77544] },
  { "name": "CSB2 Ambakirano", "coordinates": [49.154147, -13.208966] },
  { "name": "CSB2 Ambakobe", "coordinates": [48.087529, -20.687707] },
  { "name": "CSB2 Ambalabe", "coordinates": [48.632514, -19.218978] },
  { "name": "CSB2 Ambalabe", "coordinates": [50.422226, -15.160925] },
  { "name": "CSB2 Ambalahonko", "coordinates": [48.471038, -13.528316] },
  { "name": "CSB2 Ambalakely", "coordinates": [47.166106, -21.418759] },
  { "name": "CSB2 Ambalakindresy", "coordinates": [47.331256, -21.121452] },
  { "name": "CSB2 Ambalakirajy", "coordinates": [48.423802, -15.793251] },
  { "name": "CSB2 Ambalamahasoa", "coordinates": [47.142771, -21.339576] },
  { "name": "CSB2 Ambalamanakana", "coordinates": [47.182532, -20.741537] },
  { "name": "CSB2 Ambalamanasy II", "coordinates": [49.587052, -14.52867] },
  { "name": "CSB2 Ambalamidera", "coordinates": [46.85423, -21.330085] },
  { "name": "CSB2 Ambalaomby", "coordinates": [47.965688, -19.739076] },
  { "name": "CSB2 Ambalapaiso II", "coordinates": [47.888615, -20.022321] },
  { "name": "CSB2 Ambalaroka", "coordinates": [47.730395, -22.151803] },
  { "name": "CSB2 Ambalarondra", "coordinates": [49.000053, -18.468516] },
  { "name": "CSB2 Ambalasatrana", "coordinates": [49.699297, -13.743834] },
  { "name": "CSB2 Ambalatany", "coordinates": [47.586112, -22.536819] },
  { "name": "CSB2 Ambalavao", "coordinates": [47.527687, -19.097308] },
  { "name": "CSB2 Ambalavao", "coordinates": [46.938369, -21.830221] },
  { "name": "CSB2 Ambalavato", "coordinates": [45.405, -23.584872] },
  { "name": "CSB2 Ambalavato", "coordinates": [47.043083, -19.875823] },
  { "name": "CSB2 Ambalavato Sud", "coordinates": [47.583848, -22.773758] },
  { "name": "CSB2 Ambalavero", "coordinates": [47.804001, -21.811729] },
  { "name": "CSB2 Ambalavolo", "coordinates": [48.849891, -19.232741] },
  { "name": "CSB2 Ambaliha", "coordinates": [48.218031, -14.5296] },
  { "name": "CSB2 Ambaliha", "coordinates": [48.15641, -13.764481] },
  { "name": "CSB2 Ambandrika", "coordinates": [47.724521, -22.21666] },
  { "name": "CSB2 Ambandrika", "coordinates": [48.439359, -17.772592] },
  { "name": "CSB2 Ambanisarika", "coordinates": [45.981439, -25.195841] },
  { "name": "CSB2 Ambanitsena", "coordinates": [47.689014, -18.874642] },
  { "name": "CSB2 Ambanja", "coordinates": [48.452173, -13.681056] },
  { "name": "CSB2 Ambanjabe", "coordinates": [47.709767, -15.640336] },
  { "name": "CSB2 Ambano", "coordinates": [47.029173, -19.697462] },
  { "name": "CSB2 Ambarakaraka", "coordinates": [48.848357, -13.513655] },
  { "name": "CSB2 Ambararata", "coordinates": [48.544125, -15.036241] },
  { "name": "CSB2 Ambarijeby Atsimo", "coordinates": [47.677083, -14.932954] },
  { "name": "CSB2 Ambariokorano", "coordinates": [48.98664, -15.894819] },
  { "name": "CSB2 Ambaripaika", "coordinates": [48.979979, -15.759053] },
  { "name": "CSB2 Ambato", "coordinates": [47.49, -18.595] },
  { "name": "CSB2 Ambatoabo", "coordinates": [46.672103, -24.853173] },
  { "name": "CSB2 Ambatoafo", "coordinates": [49.679043, -14.113832] },
  { "name": "CSB2 Ambatoasana Centre", "coordinates": [46.384537, -19.200852] },
  { "name": "CSB2 Ambatoben'Anjavy", "coordinates": [49.052173, -13.231071] },
  { "name": "CSB2 Ambatofahavalo", "coordinates": [47.599266, -19.108276] },
  { "name": "CSB2 Ambatofinandrahana", "coordinates": [46.801014, -20.553716] },
  { "name": "CSB2 Ambatofisaka II", "coordinates": [47.904127, -20.067101] },
  { "name": "CSB2 Ambatofitorahana", "coordinates": [47.182164, -20.81766] },
  { "name": "CSB2 Ambatofotsy", "coordinates": [47.490707, -21.756689] },
  { "name": "CSB2 Ambatofotsy", "coordinates": [47.078406, -19.353276] },
  { "name": "CSB2 Ambatoharanana", "coordinates": [48.177182, -19.625337] },
  { "name": "CSB2 Ambatoharanana", "coordinates": [49.308898, -17.240506] },
  { "name": "CSB2 Ambatoharanana", "coordinates": [49.581935, -16.42659] },
  { "name": "CSB2 Ambatoharanana I", "coordinates": [49.11901, -17.343727] },
  { "name": "CSB2 Ambatolahy", "coordinates": [45.838, -22.487034] },
  { "name": "CSB2 Ambatolahy", "coordinates": [45.538269, -20.007912] },
  { "name": "CSB2 Ambatolahy", "coordinates": [47.286354, -19.731791] },
  { "name": "CSB2 Ambatolampy", "coordinates": [47.431291, -19.375876] },
  {
    "name": "CSB2 Ambatolampy Tsimahafotsy",
    "coordinates": [47.517302, -18.798138]
  },
  { "name": "CSB2 Ambatolaona", "coordinates": [47.881112, -18.928934] },
  { "name": "CSB2 Ambatolava", "coordinates": [47.288882, -23.572796] },
  { "name": "CSB2 Ambatomainty", "coordinates": [46.447159, -20.89965] },
  { "name": "CSB2 Ambatomainty", "coordinates": [45.665692, -17.69246] },
  { "name": "CSB2 Ambatomainty", "coordinates": [48.209338, -17.657598] },
  { "name": "CSB2 Ambatomanga", "coordinates": [47.737659, -18.965413] },
  { "name": "CSB2 Ambatomanga", "coordinates": [47.211789, -18.825697] },
  { "name": "CSB2 Ambatomanjaka", "coordinates": [46.866568, -18.873626] },
  { "name": "CSB2 Ambatomanoina", "coordinates": [47.625452, -18.312134] },
  { "name": "CSB2 Ambatomarina", "coordinates": [47.020327, -20.571489] },
  { "name": "CSB2 Ambatomena", "coordinates": [47.75717, -18.782316] },
  { "name": "CSB2 Ambatomena", "coordinates": [47.301783, -19.817578] },
  { "name": "CSB2 Ambatomiady", "coordinates": [47.416128, -19.693605] },
  { "name": "CSB2 Ambatomifanongoa", "coordinates": [46.916358, -20.206007] },
  { "name": "CSB2 Ambatomirahavavy", "coordinates": [47.392966, -18.93557] },
  { "name": "CSB2 Ambatomitsangana", "coordinates": [47.731762, -19.3906] },
  { "name": "CSB2 Ambatomivary", "coordinates": [45.569643, -23.841142] },
  { "name": "CSB2 Ambatondrakalavao", "coordinates": [47.508101, -19.451117] },
  { "name": "CSB2 Ambatonikolahy", "coordinates": [46.941231, -19.726379] },
  { "name": "CSB2 Ambatorao", "coordinates": [49.971794, -16.766779] },
  { "name": "CSB2 Ambatoriha Est", "coordinates": [48.955658, -14.461019] },
  { "name": "CSB2 Ambatosia", "coordinates": [48.657936, -14.675476] },
  { "name": "CSB2 Ambatosola", "coordinates": [45.37492, -24.094709] },
  { "name": "CSB2 Ambatosoratra", "coordinates": [48.517432, -17.613534] },
  { "name": "CSB2 Ambatotsipihina", "coordinates": [47.237648, -19.457989] },
  { "name": "CSB2 Ambatovola", "coordinates": [48.514445, -18.946859] },
  { "name": "CSB2 Ambatozavavy", "coordinates": [48.316879, -13.369122] },
  { "name": "CSB2 Ambatry", "coordinates": [44.40639, -23.853452] },
  { "name": "CSB2 Ambazoa", "coordinates": [45.895225, -25.325925] },
  { "name": "CSB2 Amberobe", "coordinates": [47.167279, -19.762308] },
  { "name": "CSB2 Amberomanga", "coordinates": [46.616601, -19.240181] },
  { "name": "CSB2 Ambia", "coordinates": [46.191183, -22.367826] },
  { "name": "CSB2 Ambila", "coordinates": [47.965693, -22.002496] },
  { "name": "CSB2 Ambilobe DU", "coordinates": [49.046872, -13.19593] },
  { "name": "CSB2 Ambilombe", "coordinates": [49.02563, -15.544523] },
  { "name": "CSB2 Ambinanidilana", "coordinates": [48.471843, -19.903607] },
  { "name": "CSB2 Ambinanifaho", "coordinates": [50.11905, -14.612373] },
  { "name": "CSB2 Ambinanifitoerana", "coordinates": [47.878241, -21.298248] },
  { "name": "CSB2 Ambinanin'Ifango", "coordinates": [48.802821, -15.769814] },
  { "name": "CSB2 Ambinanindovoka", "coordinates": [47.095039, -21.933827] },
  { "name": "CSB2 Ambinanindrano", "coordinates": [47.564726, -20.680281] },
  { "name": "CSB2 Ambinanindrano", "coordinates": [48.378022, -20.088073] },
  { "name": "CSB2 Ambinanindrano", "coordinates": [48.59668, -18.798414] },
  { "name": "CSB2 Ambinaninony", "coordinates": [49.172195, -18.459938] },
  { "name": "CSB2 Ambinanintelo", "coordinates": [49.582887, -15.350279] },
  { "name": "CSB2 Ambinanitromby", "coordinates": [47.522852, -21.675806] },
  { "name": "CSB2 Ambinaroa Andonaka", "coordinates": [46.492904, -21.907162] },
  { "name": "CSB2 Amboaboa", "coordinates": [48.719363, -15.945048] },
  { "name": "CSB2 Amboanana", "coordinates": [47.172469, -19.138052] },
  { "name": "CSB2 Amboanjo", "coordinates": [47.857312, -22.006657] },
  { "name": "CSB2 Amboasary", "coordinates": [47.941825, -19.842901] },
  { "name": "CSB2 Amboasary Gare", "coordinates": [48.27031, -18.38774] },
  { "name": "CSB2 Amboasary Nord", "coordinates": [47.767432, -18.118162] },
  { "name": "CSB2 Amboavory", "coordinates": [48.48534, -17.331444] },
  { "name": "CSB2 Ambodiadabo", "coordinates": [49.16902, -14.642568] },
  {
    "name": "CSB2 Ambodiadabo Maitsokely",
    "coordinates": [48.589933, -16.181687]
  },
  {
    "name": "CSB2 Ambodiamontana Kianga",
    "coordinates": [48.936822, -15.809227]
  },
  { "name": "CSB2 Ambodiampana", "coordinates": [48.672457, -14.639003] },
  { "name": "CSB2 Ambodiampana", "coordinates": [49.614843, -16.102813] },
  { "name": "CSB2 Ambodiampana", "coordinates": [49.568928, -16.823007] },
  {
    "name": "CSB2 Ambodiampana Lokoho",
    "coordinates": [49.852769, -14.527962]
  },
  { "name": "CSB2 Ambodiangezoka", "coordinates": [49.509486, -14.598705] },
  { "name": "CSB2 Ambodiara", "coordinates": [48.033408, -20.626187] },
  { "name": "CSB2 Ambodibonara", "coordinates": [48.516002, -20.318821] },
  { "name": "CSB2 Ambodibonara", "coordinates": [49.238761, -18.307878] },
  { "name": "CSB2 Ambodifarihy", "coordinates": [47.562554, -19.467214] },
  { "name": "CSB2 Ambodifotatra", "coordinates": [49.852079, -16.994827] },
  { "name": "CSB2 Ambodigavo", "coordinates": [50.124363, -14.867597] },
  { "name": "CSB2 Ambodiharina", "coordinates": [48.770201, -20.010476] },
  { "name": "CSB2 Ambodihazoambo", "coordinates": [47.916128, -16.04697] },
  { "name": "CSB2 Ambodilafa", "coordinates": [48.180388, -20.506691] },
  { "name": "CSB2 Ambodilalona", "coordinates": [50.07542, -14.611533] },
  { "name": "CSB2 Ambodilazana", "coordinates": [49.179119, -18.128575] },
  { "name": "CSB2 Ambodimahabibo", "coordinates": [48.126871, -15.729763] },
  { "name": "CSB2 Ambodimanga", "coordinates": [47.652448, -22.339276] },
  { "name": "CSB2 Ambodimanga I", "coordinates": [49.614423, -14.6996] },
  { "name": "CSB2 Ambodimanga II-B", "coordinates": [49.341743, -17.355888] },
  { "name": "CSB2 Ambodimangavalo", "coordinates": [48.964903, -17.527408] },
  { "name": "CSB2 Ambodimotso Atsimo", "coordinates": [48.586613, -15.383444] },
  { "name": "CSB2 Ambodinato", "coordinates": [47.864305, -22.143646] },
  { "name": "CSB2 Ambodinonoka", "coordinates": [47.892113, -20.979019] },
  { "name": "CSB2 Ambodinonoka", "coordinates": [47.809584, -20.359746] },
  { "name": "CSB2 Ambodirano", "coordinates": [47.487816, -18.818892] },
  {
    "name": "CSB2 Ambodirian'Isahafary",
    "coordinates": [48.42629, -20.501436]
  },
  { "name": "CSB2 Ambodiriana", "coordinates": [49.271588, -17.933367] },
  { "name": "CSB2 Ambodiriana", "coordinates": [47.565291, -19.581666] },
  { "name": "CSB2 Ambodisakoana", "coordinates": [47.969168, -15.392618] },
  { "name": "CSB2 Ambodisikidy", "coordinates": [48.901628, -14.843672] },
  { "name": "CSB2 Amboditandroho", "coordinates": [49.276167, -18.329307] },
  { "name": "CSB2 Amboditavolo", "coordinates": [48.886699, -19.17865] },
  { "name": "CSB2 Ambodivoananto", "coordinates": [48.924007, -19.328617] },
  { "name": "CSB2 Ambodivoangy", "coordinates": [47.861255, -20.017707] },
  { "name": "CSB2 Ambodivoanio", "coordinates": [49.658931, -16.183039] },
  { "name": "CSB2 Ambodivoara", "coordinates": [48.455415, -17.692798] },
  { "name": "CSB2 Ambodivoara", "coordinates": [49.982753, -14.340142] },
  { "name": "CSB2 Ambodivongo", "coordinates": [48.219749, -15.659298] },
  { "name": "CSB2 Ambohibao Atsimo", "coordinates": [47.745994, -18.74914] },
  { "name": "CSB2 Ambohibary", "coordinates": [47.136844, -19.618416] },
  { "name": "CSB2 Ambohibe", "coordinates": [49.108547, -17.436533] },
  { "name": "CSB2 Ambohibemanjaka", "coordinates": [47.68848, -19.240631] },
  { "name": "CSB2 Ambohiboromanga", "coordinates": [48.386265, -17.837698] },
  { "name": "CSB2 Ambohidrabiby", "coordinates": [47.598556, -18.775165] },
  { "name": "CSB2 Ambohidranandriana", "coordinates": [47.170295, -19.904008] },
  { "name": "CSB2 Ambohidratrimo", "coordinates": [47.436988, -18.815273] },
  {
    "name": "CSB2 Ambohidratrimoanala",
    "coordinates": [47.870863, -18.696983]
  },
  { "name": "CSB2 Ambohidroa", "coordinates": [47.486748, -18.855993] },
  { "name": "CSB2 Ambohigogo", "coordinates": [47.583848, -22.773758] },
  { "name": "CSB2 Ambohijafy  ", "coordinates": [49.4028, -18.129943] },
  { "name": "CSB2 Ambohijanahary", "coordinates": [48.382179, -17.402477] },
  { "name": "CSB2 Ambohijanaka", "coordinates": [47.562083, -18.999504] },
  { "name": "CSB2 Ambohijoky", "coordinates": [47.485852, -19.063751] },
  { "name": "CSB2 Ambohimahamasina", "coordinates": [47.175674, -21.935608] },
  { "name": "CSB2 Ambohimahasoa", "coordinates": [47.222279, -21.102326] },
  { "name": "CSB2 Ambohimahavelona", "coordinates": [43.897461, -23.443301] },
  { "name": "CSB2 Ambohimahazo", "coordinates": [47.072802, -20.691676] },
  { "name": "CSB2 Ambohimalaza", "coordinates": [47.636966, -18.896106] },
  { "name": "CSB2 Ambohimalaza", "coordinates": [45.97182, -25.110274] },
  { "name": "CSB2 Ambohimalaza", "coordinates": [50.030361, -14.296874] },
  { "name": "CSB2 Ambohimana", "coordinates": [47.311393, -22.587544] },
  { "name": "CSB2 Ambohimanambola", "coordinates": [46.571713, -19.843862] },
  { "name": "CSB2 Ambohimanana", "coordinates": [48.769718, -18.537545] },
  { "name": "CSB2 Ambohimanarina", "coordinates": [47.50092, -18.874637] },
  { "name": "CSB2 Ambohimanarivo", "coordinates": [47.670426, -18.748313] },
  { "name": "CSB2 Ambohimanarivo", "coordinates": [47.04477, -19.92733] },
  { "name": "CSB2 Ambohimandroso", "coordinates": [47.503309, -22.745518] },
  { "name": "CSB2 Ambohimandroso", "coordinates": [46.960554, -21.892016] },
  { "name": "CSB2 Ambohimandroso", "coordinates": [47.431145, -19.515008] },
  { "name": "CSB2 Ambohimandry", "coordinates": [47.371195, -19.094577] },
  { "name": "CSB2 Ambohimanga du Sud", "coordinates": [47.592973, -20.877094] },
  { "name": "CSB2 Ambohimanga Rova", "coordinates": [47.567211, -18.760643] },
  { "name": "CSB2 Ambohimangakely", "coordinates": [47.594099, -18.899269] },
  { "name": "CSB2 Ambohimanjaka", "coordinates": [47.091586, -20.201148] },
  { "name": "CSB2 Ambohimarina", "coordinates": [48.497228, -13.888009] },
  { "name": "CSB2 Ambohimasina", "coordinates": [48.425362, -17.836081] },
  { "name": "CSB2 Ambohimasina", "coordinates": [47.268653, -18.82465] },
  { "name": "CSB2 Ambohimasina", "coordinates": [46.764265, -19.607306] },
  { "name": "CSB2 Ambohimena", "coordinates": [48.395415, -13.637721] },
  { "name": "CSB2 Ambohimena", "coordinates": [48.266945, -18.198001] },
  { "name": "CSB2 Ambohimiarina II", "coordinates": [48.011384, -21.374015] },
  { "name": "CSB2 Ambohimiarivo", "coordinates": [47.164645, -19.83508] },
  { "name": "CSB2 Ambohimiera", "coordinates": [47.509908, -21.053377] },
  { "name": "CSB2 Ambohimilanja", "coordinates": [47.042515, -20.702] },
  { "name": "CSB2 Ambohimilanja", "coordinates": [47.979528, -19.934358] },
  { "name": "CSB2 Ambohimisafy", "coordinates": [47.536295, -21.480516] },
  { "name": "CSB2 Ambohimitombo I", "coordinates": [47.390357, -20.679133] },
  { "name": "CSB2 Ambohimitombo II", "coordinates": [47.446612, -20.611643] },
  { "name": "CSB2 Ambohimitsinjo", "coordinates": [49.931528, -14.321488] },
  { "name": "CSB2 Ambohinaivo", "coordinates": [46.976599, -18.957823] },
  { "name": "CSB2 Ambohinamboarina", "coordinates": [47.051738, -21.032094] },
  { "name": "CSB2 Ambohinihaonana", "coordinates": [47.910446, -21.196425] },
  { "name": "CSB2 Ambohipandrano", "coordinates": [47.337974, -19.132984] },
  { "name": "CSB2 Ambohiperivoana", "coordinates": [47.152199, -20.328668] },
  { "name": "CSB2 Ambohipihaonana", "coordinates": [47.567771, -18.68295] },
  { "name": "CSB2 Ambohipihaonana", "coordinates": [47.414313, -19.443194] },
  { "name": "CSB2 Ambohipo", "coordinates": [47.558812, -18.927316] },
  { "name": "CSB2 Ambohipo Sud", "coordinates": [47.012338, -20.844823] },
  { "name": "CSB2 Ambohisoa", "coordinates": [48.294522, -15.907878] },
  { "name": "CSB2 Ambohitoaka", "coordinates": [47.653798, -16.006613] },
  {
    "name": "CSB2 Ambohitompoina Centre",
    "coordinates": [47.665698, -19.801247]
  },
  { "name": "CSB2 Ambohitrakatso", "coordinates": [47.746509, -18.703237] },
  { "name": "CSB2 Ambohitralanana", "coordinates": [50.459496, -15.248742] },
  { "name": "CSB2 Ambohitrambo", "coordinates": [47.17873, -18.922146] },
  {
    "name": "CSB2 Ambohitrandriamanitra",
    "coordinates": [47.779919, -19.087802]
  },
  { "name": "CSB2 Ambohitrandriana", "coordinates": [48.5604, -13.968858] },
  { "name": "CSB2 Ambohitrarivo", "coordinates": [48.353247, -17.475154] },
  { "name": "CSB2 Ambohitrimanjaka", "coordinates": [47.437753, -18.861484] },
  { "name": "CSB2 Ambohitrolomahitsy", "coordinates": [47.679718, -18.706914] },
  { "name": "CSB2 Ambohitrony", "coordinates": [47.768875, -18.748459] },
  { "name": "CSB2 Ambohitsara Est", "coordinates": [48.461874, -20.86735] },
  { "name": "CSB2 Ambohitseheno", "coordinates": [47.774763, -18.783228] },
  { "name": "CSB2 Ambohitsilaozana", "coordinates": [48.467979, -17.702261] },
  {
    "name": "CSB2 Ambolidibe Atsinanana",
    "coordinates": [48.789513, -15.099747]
  },
  { "name": "CSB2 Ambolobozo", "coordinates": [47.808594, -14.411006] },
  { "name": "CSB2 Ambolodia Sud", "coordinates": [44.976757, -17.200952] },
  { "name": "CSB2 Ambolofoty", "coordinates": [43.878653, -23.519148] },
  { "name": "CSB2 Ambolomadinika", "coordinates": [47.420023, -21.923406] },
  { "name": "CSB2 Ambolotarakely", "coordinates": [47.40176, -18.270263] },
  { "name": "CSB2 Ambondro", "coordinates": [45.823217, -25.216263] },
  { "name": "CSB2 Ambondromisotra", "coordinates": [46.904494, -20.324093] },
  { "name": "CSB2 Ambondrona", "coordinates": [46.993437, -21.266974] },
  { "name": "CSB2 Ambondrona", "coordinates": [49.043097, -12.838044] },
  { "name": "CSB2 Ambondrona", "coordinates": [50.276615, -14.895538] },
  { "name": "CSB2 Ambongamarina", "coordinates": [47.954833, -18.326072] },
  { "name": "CSB2 Ambongo", "coordinates": [47.253225, -23.429234] },
  { "name": "CSB2 Amboniandrefana", "coordinates": [47.336213, -19.619951] },
  { "name": "CSB2 Amboniloha", "coordinates": [47.521194, -18.87129] },
  { "name": "CSB2 Amboriala", "coordinates": [49.431263, -13.846045] },
  { "name": "CSB2 Amborompotsy", "coordinates": [46.246479, -20.606183] },
  { "name": "CSB2 Amboronabo", "coordinates": [44.374445, -22.499918] },
  { "name": "CSB2 Amborondolo", "coordinates": [48.485156, -16.099453] },
  { "name": "CSB2 Amborondra", "coordinates": [47.776839, -21.915105] },
  { "name": "CSB2 Ambotaka", "coordinates": [48.045904, -21.7526] },
  { "name": "CSB2 Ambovombe Androy", "coordinates": [46.083801, -25.178992] },
  { "name": "CSB2 Ambovombe Centre", "coordinates": [47.076861, -20.776961] },
  { "name": "CSB2 Ambovonomby", "coordinates": [49.014696, -14.413004] },
  { "name": "CSB2 Ampahana", "coordinates": [50.221243, -14.762729] },
  { "name": "CSB2 Ampahimanga", "coordinates": [47.600376, -18.942812] },
  { "name": "CSB2 Ampahimanga", "coordinates": [47.197445, -19.104673] },
  { "name": "CSB2 Ampahitrosy", "coordinates": [47.491504, -19.028908] },
  { "name": "CSB2 Ampako", "coordinates": [44.817225, -16.752072] },
  { "name": "CSB2 Ampamata", "coordinates": [45.6357, -24.473558] },
  { "name": "CSB2 Ampanarivo", "coordinates": [47.765926, -19.003271] },
  { "name": "CSB2 Ampanavoana", "coordinates": [50.354647, -15.69838] },
  { "name": "CSB2 Ampandroantraka", "coordinates": [48.344068, -19.407268] },
  { "name": "CSB2 Ampanefena", "coordinates": [49.948805, -13.860685] },
  { "name": "CSB2 Ampangabe", "coordinates": [47.405425, -18.858716] },
  { "name": "CSB2 Ampangoriana", "coordinates": [48.34836, -13.442735] },
  { "name": "CSB2 Ampanihy", "coordinates": [44.717364, -20.467866] },
  { "name": "CSB2 Ampanihy", "coordinates": [45.413266, -19.429241] },
  { "name": "CSB2 Ampanihy Ouest", "coordinates": [44.746802, -24.697983] },
  { "name": "CSB2 Ampanotokana", "coordinates": [47.32959, -18.72903] },
  { "name": "CSB2 Amparafaravola", "coordinates": [48.221469, -17.588719] },
  { "name": "CSB2 Amparaky", "coordinates": [46.629928, -19.307945] },
  { "name": "CSB2 Amparatanjona", "coordinates": [47.857761, -18.125425] },
  { "name": "CSB2 Amparibohitra", "coordinates": [46.719152, -19.242205] },
  { "name": "CSB2 Amparihintsokatra", "coordinates": [48.573421, -17.529489] },
  { "name": "CSB2 Amparihy", "coordinates": [47.717078, -15.751633] },
  { "name": "CSB2 Amparihy Est", "coordinates": [47.333033, -23.972124] },
  { "name": "CSB2 Ampary", "coordinates": [46.709809, -19.094953] },
  { "name": "CSB2 Ampasanimalo", "coordinates": [47.542082, -18.917535] },
  { "name": "CSB2 Ampasikely", "coordinates": [48.190766, -17.658266] },
  { "name": "CSB2 Ampasimadinika", "coordinates": [49.197754, -18.444108] },
  { "name": "CSB2 Ampasimadinika", "coordinates": [48.70975, -19.535167] },
  { "name": "CSB2 Ampasimalemy", "coordinates": [47.56441, -23.333506] },
  { "name": "CSB2 Ampasimaneva", "coordinates": [48.06501, -19.394691] },
  { "name": "CSB2 Ampasimatera", "coordinates": [47.736227, -15.937777] },
  { "name": "CSB2 Ampasimazava", "coordinates": [49.298859, -17.408543] },
  { "name": "CSB2 Ampasimazava", "coordinates": [48.659236, -19.667843] },
  {
    "name": "CSB2 Ampasimbe Manantsatrana",
    "coordinates": [49.479905, -17.094459]
  },
  { "name": "CSB2 Ampasimbe Onibe", "coordinates": [49.466354, -17.599073] },
  { "name": "CSB2 Ampasimboraka", "coordinates": [47.636296, -21.669968] },
  { "name": "CSB2 Ampasimena", "coordinates": [47.157887, -24.375368] },
  { "name": "CSB2 Ampasimpotsy Sud", "coordinates": [47.756073, -21.941313] },
  { "name": "CSB2 Ampasina Maningory", "coordinates": [49.415049, -17.213708] },
  { "name": "CSB2 Ampasinambo", "coordinates": [47.993271, -20.525162] },
  {
    "name": "CSB2 Ampasipotsy Mandialaza",
    "coordinates": [48.011527, -18.643718]
  },
  { "name": "CSB2 Ampasy", "coordinates": [47.596966, -23.357081] },
  { "name": "CSB2 Ampasy Nahampoana", "coordinates": [46.984775, -24.936661] },
  {
    "name": "CSB2 Ampataka Manampaneva",
    "coordinates": [48.681176, -16.051348]
  },
  { "name": "CSB2 Ampataka Maroreny", "coordinates": [48.794784, -16.496352] },
  { "name": "CSB2 Ampefy", "coordinates": [46.734, -19.044] },
  { "name": "CSB2 Ampisikinana", "coordinates": [49.803961, -12.947046] },
  { "name": "CSB2 Ampitana", "coordinates": [47.217798, -21.130613] },
  { "name": "CSB2 Ampitatafika", "coordinates": [47.357444, -19.564827] },
  { "name": "CSB2 Ampitatsimo", "coordinates": [48.378197, -17.80666] },
  { "name": "CSB2 Ampohibe", "coordinates": [50.299522, -15.033735] },
  { "name": "CSB2 Ampondra", "coordinates": [49.97433, -13.458518] },
  { "name": "CSB2 Ampondralava", "coordinates": [48.889678, -13.195394] },
  { "name": "CSB2 Amporoforo", "coordinates": [47.794958, -22.454619] },
  { "name": "CSB2 Amporoforo", "coordinates": [49.151781, -17.840638] },
  { "name": "CSB2 Anaborano Ifasy", "coordinates": [48.822068, -13.549121] },
  { "name": "CSB2 Anakao", "coordinates": [43.64687, -23.659399] },
  { "name": "CSB2 Analaiva", "coordinates": [44.500433, -20.330794] },
  { "name": "CSB2 Analalava", "coordinates": [47.750529, -14.630076] },
  { "name": "CSB2 Analaliry", "coordinates": [46.229131, -22.613613] },
  { "name": "CSB2 Analamahitsy", "coordinates": [47.546481, -18.871202] },
  { "name": "CSB2 Analamaho", "coordinates": [49.944518, -14.211743] },
  { "name": "CSB2 Analamary", "coordinates": [45.847847, -23.23007] },
  { "name": "CSB2 Analamary", "coordinates": [47.220348, -24.245469] },
  { "name": "CSB2 Analamitsivalana", "coordinates": [44.716897, -20.304455] },
  { "name": "CSB2 Analampasina", "coordinates": [47.544446, -20.837412] },
  { "name": "CSB2 Analapatsy", "coordinates": [46.695788, -25.167535] },
  { "name": "CSB2 Analaroa", "coordinates": [47.708739, -18.412599] },
  { "name": "CSB2 Analavoka", "coordinates": [46.488146, -22.543951] },
  { "name": "CSB2 Analavory", "coordinates": [47.959819, -21.715091] },
  { "name": "CSB2 Analavory", "coordinates": [46.715997, -18.973407] },
  { "name": "CSB2 Analila", "coordinates": [48.994031, -14.491668] },
  { "name": "CSB2 Anandravy", "coordinates": [47.378888, -22.915412] },
  { "name": "CSB2 Anandrivola", "coordinates": [49.691422, -15.824452] },
  { "name": "CSB2 Anaviavy", "coordinates": [46.097335, -23.068258] },
  { "name": "CSB2 Andabotoka", "coordinates": [44.130831, -18.109096] },
  { "name": "CSB2 Andaingo", "coordinates": [48.266945, -18.198001] },
  { "name": "CSB2 Andakana", "coordinates": [47.457476, -22.526458] },
  { "name": "CSB2 Andakatany", "coordinates": [47.010596, -20.507595] },
  { "name": "CSB2 Andalatanosy", "coordinates": [45.595632, -24.668393] },
  { "name": "CSB2 Andalatery", "coordinates": [47.069792, -21.46686] },
  { "name": "CSB2 Andampy", "coordinates": [49.925066, -14.912056] },
  { "name": "CSB2 Andanona", "coordinates": [47.914065, -18.557841] },
  { "name": "CSB2 Andapa", "coordinates": [49.653033, -14.664975] },
  { "name": "CSB2 Andapafito", "coordinates": [49.380645, -16.910931] },
  { "name": "CSB2 Andara", "coordinates": [48.431336, -20.842497] },
  { "name": "CSB2 Andasibe", "coordinates": [49.43266598, -16.08085197] },
  { "name": "CSB2 Andasibe", "coordinates": [49.076338, -17.358394] },
  { "name": "CSB2 Andasibe Koboahina", "coordinates": [49.607782, -14.551354] },
  { "name": "CSB2 Andavadoaka", "coordinates": [43.239947, -22.068745] },
  { "name": "CSB2 Andemaka", "coordinates": [47.751527, -22.279167] },
  { "name": "CSB2 Andilamena DU", "coordinates": [48.571326, -17.013845] },
  { "name": "CSB2 Andilana Nord", "coordinates": [48.54684, -17.358464] },
  { "name": "CSB2 Andilanatoby", "coordinates": [48.237433, -17.935148] },
  { "name": "CSB2 Andimaka", "coordinates": [44.70888, -19.251042] },
  { "name": "CSB2 Andina", "coordinates": [47.156036, -20.525299] },
  { "name": "CSB2 Andingadingana", "coordinates": [48.460617, -17.83192] },
  { "name": "CSB2 Andiolava", "coordinates": [45.623786, -22.50251] },
  { "name": "CSB2 Andohajango", "coordinates": [48.496191, -15.908505] },
  { "name": "CSB2 Andohalo", "coordinates": [47.53197, -18.920055] },
  { "name": "CSB2 Andoharanofotsy", "coordinates": [47.532988, -18.976037] },
  { "name": "CSB2 Andoharanomaintso", "coordinates": [46.948779, -21.470925] },
  { "name": "CSB2 Andohariana", "coordinates": [47.575724, -19.313892] },
  { "name": "CSB2 Andolofotsy", "coordinates": [46.63888, -18.746998] },
  { "name": "CSB2 Andonabe", "coordinates": [47.953949, -21.46113] },
  { "name": "CSB2 Andonabe Sud", "coordinates": [48.197105, -19.922789] },
  { "name": "CSB2 Andondabe", "coordinates": [49.377741, -17.765647] },
  { "name": "CSB2 Andovoranto", "coordinates": [49.112763, -18.945066] },
  { "name": "CSB2 Andrafainkona", "coordinates": [49.466479, -13.742202] },
  { "name": "CSB2 Andrahanjo", "coordinates": [49.825293, -14.314931] },
  { "name": "CSB2 Andrainjato", "coordinates": [46.986517, -21.911899] },
  { "name": "CSB2 Andrakata", "coordinates": [49.716658, -14.628695] },
  { "name": "CSB2 Andramy", "coordinates": [44.764876, -17.979348] },
  { "name": "CSB2 Andranambolava", "coordinates": [48.275106, -20.906064] },
  { "name": "CSB2 Andranobolaha", "coordinates": [49.038511, -18.314537] },
  { "name": "CSB2 Andranobory", "coordinates": [46.554375, -25.104692] },
  { "name": "CSB2 Andranofanjava", "coordinates": [49.041874, -12.479682] },
  { "name": "CSB2 Andranofito", "coordinates": [47.455779, -19.828845] },
  { "name": "CSB2 Andranofotsy", "coordinates": [49.820058, -15.43279] },
  { "name": "CSB2 Andranohinaly", "coordinates": [44.243825, -23.131285] },
  { "name": "CSB2 Andranolalina", "coordinates": [46.991061, -23.471336] },
  { "name": "CSB2 Andranolava", "coordinates": [44.681626, -22.645019] },
  { "name": "CSB2 Andranomafana", "coordinates": [44.218355, -22.252123] },
  { "name": "CSB2 Andranomanelatra", "coordinates": [47.111958, -19.774359] },
  { "name": "CSB2 Andranomangatsiaka", "coordinates": [44.461469, -23.376552] },
  { "name": "CSB2 Andranomasina", "coordinates": [47.428139, -18.721671] },
  { "name": "CSB2 Andranomavo", "coordinates": [48.202345, -20.930464] },
  { "name": "CSB2 Andranombao", "coordinates": [46.76668, -22.768222] },
  {
    "name": "CSB2 Andranomena Ambodivazy",
    "coordinates": [49.535176, -14.604481]
  },
  { "name": "CSB2 Andranomeva", "coordinates": [47.763725, -15.795458] },
  { "name": "CSB2 Andranomiady", "coordinates": [46.957281, -19.213743] },
  { "name": "CSB2 Andranomiditra", "coordinates": [47.272499, -21.639258] },
  { "name": "CSB2 Andranopasy", "coordinates": [43.739291, -21.278963] },
  { "name": "CSB2 Andranosoa", "coordinates": [47.639712, -18.876691] },
  { "name": "CSB2 Andranovao", "coordinates": [44.060034, -17.613507] },
  { "name": "CSB2 Andranovelona", "coordinates": [47.627051, -19.628001] },
  { "name": "CSB2 Andranovondronina", "coordinates": [49.311858, -12.118738] },
  { "name": "CSB2 Andranovorivato", "coordinates": [46.990194, -21.628022] },
  { "name": "CSB2 Andranovory", "coordinates": [44.145902, -23.141273] },
  { "name": "CSB2 Andratamarina", "coordinates": [49.04939, -15.855167] },
  { "name": "CSB2 Andratamarina", "coordinates": [49.901001, -14.355159] },
  { "name": "CSB2 Andratambazaha", "coordinates": [49.149864, -17.952628] },
  { "name": "CSB2 Andravola", "coordinates": [47.374305, -19.40859] },
  { "name": "CSB2 Andravory", "coordinates": [49.60338, -13.866857] },
  { "name": "CSB2 Andrea", "coordinates": [44.121955, -17.893145] },
  { "name": "CSB2 Andreamboasary", "coordinates": [47.07623, -21.414669] },
  { "name": "CSB2 Andrebakely Nord", "coordinates": [48.63015, -17.388683] },
  { "name": "CSB2 Andrebakely Sud", "coordinates": [48.188744, -17.677945] },
  { "name": "CSB2 Andremalama", "coordinates": [46.910155, -21.1406383] },
  { "name": "CSB2 Andrembesoa", "coordinates": [46.549607, -20.10968] },
  { "name": "CSB2 Andriambilany", "coordinates": [47.466031, -19.330438] },
  { "name": "CSB2 Andriandampy", "coordinates": [45.681021, -22.749002] },
  { "name": "CSB2 Androka", "coordinates": [44.549962, -25.052375] },
  { "name": "CSB2 Andromba", "coordinates": [48.642892, -17.402895] },
  { "name": "CSB2 Androndrona", "coordinates": [49.199585, -15.765592] },
  { "name": "CSB2 Androrangavola", "coordinates": [47.71782, -21.502912] },
  { "name": "CSB2 Androrangavola", "coordinates": [48.23915, -20.528518] },
  { "name": "CSB2 Androrangavola", "coordinates": [47.919995, -20.159523] },
  { "name": "CSB2 Androvakely", "coordinates": [47.517522, -18.397133] },
  { "name": "CSB2 Androy", "coordinates": [47.271509, -21.331465] },
  { "name": "CSB2 Anepoka", "coordinates": [47.611849, -19.237925] },
  { "name": "CSB2 Angodongodona", "coordinates": [47.83482, -20.569965] },
  { "name": "CSB2 Anivorano Mitsinjo", "coordinates": [45.623266, -24.351109] },
  { "name": "CSB2 Anja Nord", "coordinates": [45.281258, -24.269386] },
  { "name": "CSB2 Anjahambe", "coordinates": [49.14643, -17.384834] },
  { "name": "CSB2 Anjahana", "coordinates": [49.866469, -15.412058] },
  { "name": "CSB2 Anjampaly", "coordinates": [45.67586, -25.440065] },
  { "name": "CSB2 Anjanadoria", "coordinates": [47.385407, -18.624838] },
  { "name": "CSB2 Anjanazana", "coordinates": [49.720475, -15.403613] },
  { "name": "CSB2 Anjangoveratra", "coordinates": [50.06083, -14.123865] },
  { "name": "CSB2 Anjanomanana", "coordinates": [47.124026, -21.602895] },
  { "name": "CSB2 Anjeke Ankilikira", "coordinates": [46.238998, -25.058285] },
  { "name": "CSB2 Anjepy", "coordinates": [47.732534, -18.848296] },
  { "name": "CSB2 Anjeva Gare", "coordinates": [47.661451, -18.942805] },
  { "name": "CSB2 Anjiabe", "coordinates": [48.350892, -15.596965] },
  { "name": "CSB2 Anjiabe", "coordinates": [48.866791, -13.221959] },
  { "name": "CSB2 Anjialava", "coordinates": [49.731278, -14.081655] },
  { "name": "CSB2 Anjialavabe", "coordinates": [49.49043, -14.19014] },
  { "name": "CSB2 Anjinjaomby", "coordinates": [49.970056, -14.302192] },
  { "name": "CSB2 Anjoma", "coordinates": [47.033797, -21.887853] },
  { "name": "CSB2 Anjoma Betoho", "coordinates": [47.693317, -18.810934] },
  { "name": "CSB2 Anjoma CSMI", "coordinates": [47.088515, -21.45558] },
  { "name": "CSB2 Anjoma Faliarivo", "coordinates": [47.746307, -19.327031] },
  { "name": "CSB2 Anjoma Itsara", "coordinates": [46.91693, -21.220469] },
  { "name": "CSB2 Anjoma Nandihizana", "coordinates": [47.118989, -20.834541] },
  { "name": "CSB2 Anjoma Ramaritina", "coordinates": [45.94462, -19.642178] },
  { "name": "CSB2 Anjomakely", "coordinates": [47.543619, -19.032188] },
  { "name": "CSB2 Anjoman'Akona", "coordinates": [47.105327, -20.655218] },
  { "name": "CSB2 Anjozorobe", "coordinates": [47.879505, -18.402679] },
  { "name": "CSB2 Ankadikely Ilafy", "coordinates": [47.562244, -18.857645] },
  { "name": "CSB2 Ankadinandriana", "coordinates": [47.662835, -19.060358] },
  { "name": "CSB2 Ankadivoribe", "coordinates": [47.502474, -18.990379] },
  { "name": "CSB2 Ankafina", "coordinates": [47.166436, -21.8377] },
  { "name": "CSB2 Ankalalobe", "coordinates": [44.970646, -19.630638] },
  { "name": "CSB2 Ankaramena", "coordinates": [46.641658, -21.946555] },
  { "name": "CSB2 Ankaramena", "coordinates": [46.766083, -25.036792] },
  { "name": "CSB2 Ankaramibe", "coordinates": [48.178812, -13.979225] },
  { "name": "CSB2 Ankarana", "coordinates": [47.630513, -23.085246] },
  { "name": "CSB2 Ankaranabo Nord", "coordinates": [45.285854, -24.195049] },
  { "name": "CSB2 Ankaranana", "coordinates": [46.620896, -19.049512] },
  { "name": "CSB2 Ankariera", "coordinates": [46.596069, -25.014765] },
  { "name": "CSB2 Ankarimbary", "coordinates": [47.804405, -22.300166] },
  { "name": "CSB2 Ankarimbelo", "coordinates": [47.329321, -22.133706] },
  { "name": "CSB2 Ankarinarivo Anivo", "coordinates": [47.035921, -21.391587] },
  { "name": "CSB2 Ankarinoro", "coordinates": [47.483161, -20.326685] },
  { "name": "CSB2 Ankarongana", "coordinates": [48.914757, -15.411932] },
  { "name": "CSB2 Ankarongana", "coordinates": [49.394249, -12.66667] },
  { "name": "CSB2 Ankasakasa Tsibiray", "coordinates": [44.86804, -16.347625] },
  { "name": "CSB2 Ankatafa", "coordinates": [48.369486, -13.638952] },
  { "name": "CSB2 Ankatsakantsa Sud", "coordinates": [43.895212, -21.884073] },
  { "name": "CSB2 Ankavandra", "coordinates": [45.305477, -18.79678] },
  { "name": "CSB2 Ankazoabo Sud", "coordinates": [44.510238, -22.292812] },
  { "name": "CSB2 Ankazoambo", "coordinates": [47.235627, -20.570871] },
  { "name": "CSB2 Ankazobe", "coordinates": [47.115766, -18.316258] },
  { "name": "CSB2 Ankazomanga Ouest", "coordinates": [44.136163, -23.65339] },
  { "name": "CSB2 Ankazomiriotra", "coordinates": [46.533754, -19.659082] },
  { "name": "CSB2 Ankazondandy", "coordinates": [47.795873, -18.698421] },
  { "name": "CSB2 Ankazotsifantatra", "coordinates": [48.503279, -19.986167] },
  { "name": "CSB2 Ankerana", "coordinates": [47.16644, -21.118407] },
  { "name": "CSB2 Anketrakabe", "coordinates": [49.345416, -12.552813] },
  { "name": "CSB2 Ankiabe Salohy", "coordinates": [48.734062, -15.610458] },
  { "name": "CSB2 Ankiliabo", "coordinates": [43.894106, -21.714068] },
  { "name": "CSB2 Ankililoaka", "coordinates": [43.621974, -22.763791] },
  { "name": "CSB2 Ankilimalinika", "coordinates": [43.563564, -22.954834] },
  { "name": "CSB2 Ankilimivory", "coordinates": [44.974153, -24.470845] },
  { "name": "CSB2 Ankilivalo", "coordinates": [44.636028, -20.298801] },
  { "name": "CSB2 Ankilivalo I", "coordinates": [44.632874, -23.276104] },
  { "name": "CSB2 Ankilizato", "coordinates": [44.664521, -24.584084] },
  { "name": "CSB2 Ankilizato", "coordinates": [45.046872, -20.40971] },
  { "name": "CSB2 Ankily", "coordinates": [46.099497, -22.386151] },
  { "name": "CSB2 Ankingameloka", "coordinates": [48.298025, -13.816888] },
  { "name": "CSB2 Ankirihiry", "coordinates": [49.394207, -18.141907] },
  { "name": "CSB2 Ankirondro", "coordinates": [44.583877, -19.586845] },
  { "name": "CSB2 Ankisabe", "coordinates": [46.480496, -19.295504] },
  { "name": "CSB2 Ankisatra", "coordinates": [44.152326, -18.224177] },
  { "name": "CSB2 Ankoalabe", "coordinates": [50.280926, -14.906879] },
  { "name": "CSB2 Ankofa", "coordinates": [49.64891, -15.397974] },
  { "name": "CSB2 Ankofabe", "coordinates": [49.616169, -15.51365] },
  { "name": "CSB2 Ankofafa", "coordinates": [47.112794, -21.429179] },
  { "name": "CSB2 Ankondromena", "coordinates": [45.057015, -18.4011] },
  { "name": "CSB2 Ankorona", "coordinates": [47.726854, -18.956779] },
  { "name": "CSB2 Ankotrofotsy", "coordinates": [45.529153, -19.800191] },
  { "name": "CSB2 Anoloka", "coordinates": [47.893026, -22.337782] },
  { "name": "CSB2 Anontsibe", "coordinates": [44.468541, -21.375762] },
  { "name": "CSB2 Anorombato", "coordinates": [47.790889, -22.018789] },
  { "name": "CSB2 Anorontsangana", "coordinates": [47.922162, -13.915412] },
  { "name": "CSB2 Anororo", "coordinates": [48.430067, -17.510974] },
  { "name": "CSB2 Anosiala", "coordinates": [47.42826, -18.800951] },
  { "name": "CSB2 Anosiarivo", "coordinates": [47.558256, -18.770309] },
  { "name": "CSB2 Anosiarivo I", "coordinates": [47.90202, -20.20407] },
  {
    "name": "CSB2 Anosiarivo Manampana",
    "coordinates": [46.770201, -20.054462]
  },
  { "name": "CSB2 Anosibe An'Ala", "coordinates": [48.206794, -19.441037] },
  { "name": "CSB2 Anosibe Ifanja", "coordinates": [46.752837, -18.882928] },
  {
    "name": "CSB2 Anosibe Trimoloharano",
    "coordinates": [47.772705, -19.205063]
  },
  { "name": "CSB2 Anosimanasa", "coordinates": [48.914664, -19.227668] },
  { "name": "CSB2 Anosimena", "coordinates": [45.403267, -19.671458] },
  { "name": "CSB2 Anosimparihy", "coordinates": [47.993316, -21.505178] },
  { "name": "CSB2 Anosipatrana", "coordinates": [47.498311, -18.928217] },
  { "name": "CSB2 Anosivelo", "coordinates": [47.788169, -22.740475] },
  { "name": "CSB2 Anosivola NC 08", "coordinates": [47.865563, -18.474392] },
  { "name": "CSB2 Anosizato Andrefana", "coordinates": [47.492331, -18.94065] },
  { "name": "CSB2 Anosy Avaratra", "coordinates": [47.560348, -18.819096] },
  { "name": "CSB2 Anosy Tsararafa", "coordinates": [47.809835, -22.724067] },
  { "name": "CSB2 Anoviara", "coordinates": [49.833616, -14.741894] },
  { "name": "CSB2 Antakavana", "coordinates": [47.383809, -18.03492] },
  { "name": "CSB2 Antakotako", "coordinates": [49.80232, -15.332042] },
  { "name": "CSB2 Antaly", "coordinates": [44.764375, -24.347597] },
  { "name": "CSB2 Antambohobe", "coordinates": [46.774932, -22.310959] },
  { "name": "CSB2 Antambolo", "coordinates": [47.318274, -18.832528] },
  { "name": "CSB2 Antanamalaza", "coordinates": [47.628439, -19.426888] },
  { "name": "CSB2 Antanamalaza", "coordinates": [47.141603, -20.024605] },
  { "name": "CSB2 Antanambao", "coordinates": [47.391128, -19.957712] },
  { "name": "CSB2 Antanambao Ambary", "coordinates": [46.213918, -19.594583] },
  { "name": "CSB2 Antanambao I", "coordinates": [47.879412, -20.551058] },
  {
    "name": "CSB2 Antanambao Lavenona",
    "coordinates": [47.482365, -20.127099]
  },
  {
    "name": "CSB2 Antanambao Mahatsara",
    "coordinates": [48.80064, -19.309987]
  },
  { "name": "CSB2 Antanambaobe", "coordinates": [49.668432, -16.262066] },
  { "name": "CSB2 Antanambaobe", "coordinates": [49.593324, -14.593506] },
  {
    "name": "CSB2 Antanambaon'Amberina",
    "coordinates": [49.112779, -16.408978]
  },
  { "name": "CSB2 Antanambe", "coordinates": [49.848705, -16.433174] },
  { "name": "CSB2 Antananambo", "coordinates": [50.150117, -14.864843] },
  { "name": "CSB2 Antanananivo", "coordinates": [49.719648, -16.284361] },
  { "name": "CSB2 Antanandava", "coordinates": [48.719363, -15.945048] },
  { "name": "CSB2 Antanandava Nord", "coordinates": [48.670786, -17.455741] },
  { "name": "CSB2 Antanandehibe", "coordinates": [48.351435, -19.678757] },
  { "name": "CSB2 Antandrokomby", "coordinates": [48.05402, -19.640155] },
  { "name": "CSB2 Antanetibe", "coordinates": [47.557434, -18.396339] },
  { "name": "CSB2 Antanetibe", "coordinates": [48.49022, -16.937996] },
  {
    "name": "CSB2 Antanetibe Mahazaza",
    "coordinates": [47.361443, -18.687332]
  },
  { "name": "CSB2 Antanifotsy", "coordinates": [48.421357, -17.818173] },
  { "name": "CSB2 Antanifotsy", "coordinates": [49.613536, -16.874991] },
  { "name": "CSB2 Antanifotsy", "coordinates": [47.324452, -19.660796] },
  { "name": "CSB2 Antanimandry", "coordinates": [46.963391, -19.853773] },
  {
    "name": "CSB2 Antanimasaka Tsaramiafara",
    "coordinates": [47.563336, -19.403542]
  },
  { "name": "CSB2 Antanimena", "coordinates": [47.521059, -18.897863] },
  { "name": "CSB2 Antanimenabaka", "coordinates": [47.444781, -20.203759] },
  { "name": "CSB2 Antanimieva", "coordinates": [43.77353, -22.246497] },
  { "name": "CSB2 Antanimora Atsimo", "coordinates": [45.66243, -24.814494] },
  { "name": "CSB2 Antaninarenina", "coordinates": [46.940013, -23.945551] },
  { "name": "CSB2 Antaritarika", "coordinates": [45.755226, -25.394095] },
  { "name": "CSB2 Antehiroka", "coordinates": [47.473582, -18.847809] },
  { "name": "CSB2 Antenimbe", "coordinates": [47.107137, -19.213975] },
  { "name": "CSB2 Antenina", "coordinates": [49.250236, -16.572061] },
  { "name": "CSB2 Antenina I", "coordinates": [48.975034, -17.789324] },
  { "name": "CSB2 Antetezambaro", "coordinates": [49.387318, -18.069724] },
  { "name": "CSB2 Anteza", "coordinates": [47.8712, -21.668952] },
  { "name": "CSB2 Antindra", "coordinates": [49.811238, -14.134726] },
  { "name": "CSB2 Antodinga", "coordinates": [47.415025, -22.149508] },
  { "name": "CSB2 Antoetra", "coordinates": [47.317512, -20.77538] },
  { "name": "CSB2 Antohabato", "coordinates": [44.480651, -23.559356] },
  { "name": "CSB2 Antokoboritelo", "coordinates": [47.139806, -23.853] },
  { "name": "CSB2 Antokonala", "coordinates": [47.398364, -23.004442] },
  { "name": "CSB2 Antombana", "coordinates": [50.165345, -14.991365] },
  { "name": "CSB2 Antondabe", "coordinates": [47.139806, -23.853] },
  { "name": "CSB2 Antongo", "coordinates": [43.584367, -21.405373] },
  { "name": "CSB2 Antotohazo", "coordinates": [47.615257, -19.368742] },
  { "name": "CSB2 Antovontany", "coordinates": [47.556, -18.382] },
  { "name": "CSB2 Antranokarany", "coordinates": [48.386921, -13.7268] },
  { "name": "CSB2 Antsahadinta", "coordinates": [47.463962, -19.010093] },
  { "name": "CSB2 Antsahafilo", "coordinates": [47.538364, -18.64213] },
  { "name": "CSB2 Antsahalalina", "coordinates": [47.794375, -18.761896] },
  { "name": "CSB2 Antsahalava", "coordinates": [47.466129, -19.560855] },
  { "name": "CSB2 Antsahamaro", "coordinates": [47.599319, -18.731521] },
  { "name": "CSB2 Antsahamena", "coordinates": [49.779715, -14.937108] },
  { "name": "CSB2 Antsahampano", "coordinates": [49.188837, -12.325029] },
  { "name": "CSB2 Antsahanoro", "coordinates": [50.142097, -14.840313] },
  { "name": "CSB2 Antsahapolisy", "coordinates": [49.503928, -14.044491] },
  { "name": "CSB2 Antsaharatsy", "coordinates": [47.310526, -18.727623] },
  { "name": "CSB2 Antsaharoa", "coordinates": [47.056998, -21.445457] },
  { "name": "CSB2 Antsahavaribe", "coordinates": [49.651853, -14.031162] },
  { "name": "CSB2 Antsahavaribe", "coordinates": [49.84658, -13.811947] },
  { "name": "CSB2 Antsaidoha Bebao", "coordinates": [44.436535, -17.434204] },
  { "name": "CSB2 Antsakabary", "coordinates": [48.937317, -15.105136] },
  { "name": "CSB2 Antsakanalabe", "coordinates": [48.110348, -15.469846] },
  { "name": "CSB2 Antsakoamanondro", "coordinates": [48.504266, -13.610492] },
  { "name": "CSB2 Antsakoamaro", "coordinates": [45.183492, -24.243265] },
  { "name": "CSB2 Antsalaka", "coordinates": [49.251201, -12.640404] },
  { "name": "CSB2 Antsalova", "coordinates": [44.624, -18.679099] },
  { "name": "CSB2 Antsamaka", "coordinates": [48.629739, -14.570599] },
  { "name": "CSB2 Antsambalahy I", "coordinates": [49.959031, -14.770752] },
  { "name": "CSB2 Antsampandrano", "coordinates": [47.59165, -19.543175] },
  { "name": "CSB2 Antsampandrano", "coordinates": [47.571416, -19.953137] },
  { "name": "CSB2 Antsangasanga", "coordinates": [48.288789, -17.84036] },
  { "name": "CSB2 Antsapanimahazo", "coordinates": [47.041027, -19.417233] },
  { "name": "CSB2 Antsaravibe", "coordinates": [48.964087, -12.921032] },
  { "name": "CSB2 Antsatramidola", "coordinates": [48.967737, -15.633349] },
  { "name": "CSB2 Antsatsaka", "coordinates": [48.400112, -13.708137] },
  { "name": "CSB2 Antsenavolo", "coordinates": [48.049529, -21.392002] },
  { "name": "CSB2 Antseranambe", "coordinates": [47.646321, -23.170445] },
  { "name": "CSB2 Antsiatsiaka", "coordinates": [49.109357, -16.059156] },
  { "name": "CSB2 Antsiatsiaka", "coordinates": [49.373621, -17.048069] },
  { "name": "CSB2 Antsirabe", "coordinates": [48.197755, -13.874496] },
  { "name": "CSB2 Antsirabe Centre", "coordinates": [48.965178, -15.955226] },
  { "name": "CSB2 Antsirabe Nord", "coordinates": [49.967663, -13.97608] },
  { "name": "CSB2 Antsirabe Sahatany", "coordinates": [49.596198, -15.487736] },
  { "name": "CSB2 Antsirabeniseva", "coordinates": [49.473078, -16.849845] },
  { "name": "CSB2 Antsiraraka", "coordinates": [44.85123, -19.806726] },
  { "name": "CSB2 Antsoatany", "coordinates": [47.156053, -19.698979] },
  { "name": "CSB2 Antsoha", "coordinates": [44.859197, -19.918216] },
  { "name": "CSB2 Antsohimbondrona", "coordinates": [48.858823, -13.09268] },
  { "name": "CSB2 Antsondrodava", "coordinates": [44.390182, -18.451903] },
  { "name": "CSB2 Antsororokavo", "coordinates": [47.097118, -21.437559] },
  { "name": "CSB2 Antsoso", "coordinates": [46.854774, -19.773886] },
  { "name": "CSB2 Arivonimamo I", "coordinates": [47.179811, -19.008361] },
  { "name": "CSB2 Arivonimamo II", "coordinates": [47.165683, -19.014906] },
  { "name": "CSB2 Atsinanantsena", "coordinates": [47.028317, -19.872098] },
  { "name": "CSB2 Atsindra", "coordinates": [47.731906, -20.987904] },
  { "name": "CSB2 Avaratsena", "coordinates": [47.596907, -18.650576] },
  { "name": "CSB2 Basibasy", "coordinates": [43.661347, -22.178588] },
  {
    "name": "CSB2 Bazaribe Taolagnaro",
    "coordinates": [46.998381, -25.031258]
  },
  { "name": "CSB2 Beahitse", "coordinates": [44.44169, -24.167149] },
  { "name": "CSB2 Bealampona", "coordinates": [49.566239, -14.655067] },
  { "name": "CSB2 Bealanana DU", "coordinates": [48.744971, -14.543854] },
  { "name": "CSB2 Beampombo I", "coordinates": [45.665891, -23.105602] },
  { "name": "CSB2 Beampombo II", "coordinates": [45.558939, -23.605167] },
  { "name": "CSB2 Beanana", "coordinates": [48.432296, -17.373372] },
  { "name": "CSB2 Beandrarezona", "coordinates": [48.674318, -14.455128] },
  { "name": "CSB2 Beantake", "coordinates": [44.334502, -23.825319] },
  {
    "name": "CSB2 Beavoha (Ankazombala)",
    "coordinates": [44.690218, -23.590665]
  },
  { "name": "CSB2 Bebaboky Sud", "coordinates": [44.466774, -17.136385] },
  { "name": "CSB2 Bedidy", "coordinates": [48.021962, -17.470164] },
  {
    "name": "CSB2 Befandriana Avaratra",
    "coordinates": [48.539248, -15.255511]
  },
  { "name": "CSB2 Befandriana Sud", "coordinates": [43.89141, -22.107455] },
  { "name": "CSB2 Befeta", "coordinates": [47.048889, -21.232638] },
  { "name": "CSB2 Befody", "coordinates": [47.937009, -20.778949] },
  { "name": "CSB2 Befotaka", "coordinates": [48.369897, -20.265702] },
  { "name": "CSB2 Befotaka", "coordinates": [44.80082, -20.29887] },
  { "name": "CSB2 Befotaka Avaratra", "coordinates": [48.021785, -14.532233] },
  { "name": "CSB2 Befotaka Sud", "coordinates": [46.988343, -23.822965] },
  { "name": "CSB2 Begidro", "coordinates": [45.099111, -19.782533] },
  { "name": "CSB2 Begogo", "coordinates": [46.706377, -23.49145] },
  { "name": "CSB2 Behabobo", "coordinates": [45.139606, -24.949027] },
  { "name": "CSB2 Beharena", "coordinates": [46.829962, -23.863126] },
  { "name": "CSB2 Beharona", "coordinates": [44.304507, -21.524068] },
  { "name": "CSB2 Beheloka", "coordinates": [43.697024, -24.000328] },
  { "name": "CSB2 Behenjy", "coordinates": [47.487312, -19.210093] },
  { "name": "CSB2 Behisatsy", "coordinates": [45.120739, -21.808029] },
  { "name": "CSB2 Behompy", "coordinates": [43.96609, -22.917746] },
  { "name": "CSB2 Bejofo", "coordinates": [48.327793, -14.234458] },
  { "name": "CSB2 Bejofo", "coordinates": [48.212249, -17.836072] },
  { "name": "CSB2 Bekaraoky", "coordinates": [47.615862, -23.468364] },
  { "name": "CSB2 Bekatra", "coordinates": [47.719887, -22.110447] },
  { "name": "CSB2 Bekily Centrale", "coordinates": [45.319536, -24.219514] },
  { "name": "CSB2 Bekitro", "coordinates": [45.297144, -24.550764] },
  { "name": "CSB2 Bekodoka", "coordinates": [45.103391, -16.971119] },
  { "name": "CSB2 Bekopaka", "coordinates": [44.792757, -19.147635] },
  { "name": "CSB2 Bekoratsaka", "coordinates": [47.49208, -16.109245] },
  { "name": "CSB2 Belafika Ambony", "coordinates": [44.596083, -24.240231] },
  { "name": "CSB2 Belalanda", "coordinates": [43.622478, -23.305084] },